full_code,short_code,name,name_cy,slug,gss_code,three_code,nation,region,con_type,electorate,area,density,center_lat,center_lon,"lat,lon"
uk.org.mysociety.cons.ukparl.2025.baf,UKPARL.2025.BAF,Broadland and Fakenham,,broadland-and-fakenham,E14001136,BAF,England,Eastern,county,72907,720.7729176,101.1511368,52.74069504,1.192006171,"52.740695042307,1.19200617112541"
uk.org.mysociety.cons.ukparl.2025.gym,UKPARL.2025.GYM,Great Yarmouth,,great-yarmouth,E14001256,GYM,England,Eastern,county,70077,182.55548,383.8668661,52.64071397,1.661393277,"52.6407139684535,1.66139327686272"
uk.org.mysociety.cons.ukparl.2025.nnf,UKPARL.2025.NNF,North Norfolk,,north-norfolk,E14001396,NNF,England,Eastern,county,70719,792.7839681,89.20336794,52.853335,1.243182039,"52.8533350036626,1.24318203942898"
uk.org.mysociety.cons.ukparl.2025.mnf,UKPARL.2025.MNF,Mid Norfolk,,mid-norfolk,E14001365,MNF,England,Eastern,county,71060,838.9939049,84.69668204,52.629226,0.9205931534,"52.6292259974449,0.920593153365756"
uk.org.mysociety.cons.ukparl.2025.swn,UKPARL.2025.SWN,South West Norfolk,,south-west-norfolk,E14001497,SWN,England,Eastern,county,72496,1160.870781,62.44967243,52.55729632,0.5622003033,"52.5572963192139,0.562200303314303"
uk.org.mysociety.cons.ukparl.2025.nwn,UKPARL.2025.NWN,North West Norfolk,,north-west-norfolk,E14001405,NWN,England,Eastern,county,75200,910.2897586,82.61105795,52.82214367,0.5145140467,"52.8221436672635,0.514514046684001"
uk.org.mysociety.cons.ukparl.2025.nec,UKPARL.2025.NEC,North East Cambridgeshire,,north-east-cambridgeshire,E14001390,NEC,England,Eastern,county,70806,547.3553974,129.3601933,52.56284099,0.06077131021,"52.5628409907241,0.0607713102125756"
uk.org.mysociety.cons.ukparl.2025.eec,UKPARL.2025.EEC,Ely and East Cambridgeshire,,ely-and-east-cambridgeshire,E14001224,EEC,England,Eastern,county,76279,727.1574611,104.9002507,52.33711959,0.2809006205,"52.3371195927512,0.280900620491482"
uk.org.mysociety.cons.ukparl.2025.scb,UKPARL.2025.SCB,South Cambridgeshire,,south-cambridgeshire,E14001481,SCB,England,Eastern,county,75484,588.9495142,128.1671827,52.12593054,0.1154938486,"52.1259305408988,0.115493848629204"
uk.org.mysociety.cons.ukparl.2025.cbg,UKPARL.2025.CBG,Cambridge,,cambridge,E14001149,CBG,England,Eastern,borough,72560,32.34829504,2243.085761,52.20405926,0.1261343006,"52.2040592625264,0.126134300576205"
uk.org.mysociety.cons.ukparl.2025.snc,UKPARL.2025.SNC,St Neots and Mid Cambridgeshire,,st-neots-and-mid-cambridgeshire,E14001512,SNC,England,Eastern,county,74699,349.92019,213.4743925,52.24269726,-0.07270462119,"52.2426972614772,-0.0727046211891505"
uk.org.mysociety.cons.ukparl.2025.htd,UKPARL.2025.HTD,Huntingdon,,huntingdon,E14001298,HTD,England,Eastern,county,75590,591.0782404,127.884931,52.35733512,-0.2226216655,"52.3573351224903,-0.222621665500595"
uk.org.mysociety.cons.ukparl.2025.nwc,UKPARL.2025.NWC,North West Cambridgeshire,,north-west-cambridgeshire,E14001401,NWC,England,Eastern,county,73556,388.2505946,189.4549578,52.53814981,-0.2824686651,"52.5381498128774,-0.282468665105667"
uk.org.mysociety.cons.ukparl.2025.pbo,UKPARL.2025.PBO,Peterborough,,peterborough,E14001425,PBO,England,Eastern,county,72273,172.3857533,419.2515832,52.61694594,-0.1581956508,"52.6169459382879,-0.158195650826225"
uk.org.mysociety.cons.ukparl.2025.nbd,UKPARL.2025.NBD,North Bedfordshire,,north-bedfordshire,E14001384,NBD,England,Eastern,county,76319,584.8362393,130.4963593,52.17370992,-0.4138352656,"52.1737099199061,-0.413835265621518"
uk.org.mysociety.cons.ukparl.2025.bed,UKPARL.2025.BED,Bedford,,bedford,E14001084,BED,England,Eastern,borough,70068,29.59705788,2367.397472,52.13588045,-0.4587727261,"52.1358804461083,-0.458772726094815"
uk.org.mysociety.cons.ukparl.2025.mbd,UKPARL.2025.MBD,Mid Bedfordshire,,mid-bedfordshire,E14001359,MBD,England,Eastern,county,71748,347.4705546,206.4865614,52.0145124,-0.5074637401,"52.0145124044384,-0.507463740059625"
uk.org.mysociety.cons.ukparl.2025.dlb,UKPARL.2025.DLB,Dunstable and Leighton Buzzard,,dunstable-and-leighton-buzzard,E14001206,DLB,England,Eastern,county,74069,78.56499714,942.773534,51.91711137,-0.5928748704,"51.91711137314,-0.592874870391063"
uk.org.mysociety.cons.ukparl.2025.lus,UKPARL.2025.LUS,Luton South and South Bedfordshire,,luton-south-and-south-bedfordshire,E14001346,LUS,England,Eastern,county,70197,100.6921294,697.1448552,51.86508383,-0.4790871118,"51.8650838341944,-0.479087111840864"
uk.org.mysociety.cons.ukparl.2025.clt,UKPARL.2025.CLT,Clacton,,clacton,E14001174,CLT,England,Eastern,county,75959,216.3061336,351.164337,51.85044517,1.147263691,"51.8504451685275,1.14726369111972"
uk.org.mysociety.cons.ukparl.2025.hwc,UKPARL.2025.HWC,Harwich and North Essex,,harwich-and-north-essex,E14001273,HWC,England,Eastern,county,74838,353.128657,211.9284247,51.89357966,0.9602143852,"51.8935796612067,0.960214385190194"
uk.org.mysociety.cons.ukparl.2025.col,UKPARL.2025.COL,Colchester,,colchester,E14001176,COL,England,Eastern,borough,76843,42.2620676,1818.249895,51.88886715,0.8971559469,"51.8888671462945,0.897155946941761"
uk.org.mysociety.cons.ukparl.2025.wtm,UKPARL.2025.WTM,Witham,,witham,E14001590,WTM,England,Eastern,county,75064,436.9937691,171.7736163,51.82172691,0.7101888551,"51.8217269063881,0.710188855130834"
uk.org.mysociety.cons.ukparl.2025.mal,UKPARL.2025.MAL,Maldon,,maldon,E14001351,MAL,England,Eastern,county,76794,443.4033624,173.1921914,51.68106667,0.70755141,"51.6810666731749,0.707551410011227"
uk.org.mysociety.cons.ukparl.2025.raw,UKPARL.2025.RAW,Rayleigh and Wickford,,rayleigh-and-wickford,E14001437,RAW,England,Eastern,county,76422,68.68440563,1112.654311,51.60675332,0.61164786,"51.6067533238603,0.611647859952176"
uk.org.mysociety.cons.ukparl.2025.cpt,UKPARL.2025.CPT,Castle Point,,castle-point,E14001154,CPT,England,Eastern,borough,70923,76.86555262,922.6890016,51.54040144,0.5838628018,"51.5404014439528,0.583862801769329"
uk.org.mysociety.cons.ukparl.2025.sbt,UKPARL.2025.SBT,South Basildon and East Thurrock,,south-basildon-and-east-thurrock,E14001480,SBT,England,Eastern,county,73322,134.6811756,544.4116423,51.52328113,0.4261811264,"51.523281129295,0.426181126428045"
uk.org.mysociety.cons.ukparl.2025.thk,UKPARL.2025.THK,Thurrock,,thurrock,E14001546,THK,England,Eastern,borough,73347,71.34053975,1028.125106,51.49052865,0.303085603,"51.490528648149,0.303085602950067"
uk.org.mysociety.cons.ukparl.2025.bab,UKPARL.2025.BAB,Basildon and Billericay,,basildon-and-billericay,E14001077,BAB,England,Eastern,borough,76993,61.87436176,1244.344148,51.60259975,0.4369170506,"51.6025997482256,0.43691705056427"
uk.org.mysociety.cons.ukparl.2025.bao,UKPARL.2025.BAO,Brentwood and Ongar,,brentwood-and-ongar,E14001125,BAO,England,Eastern,county,74937,316.2149825,236.981181,51.67692328,0.2657110634,"51.6769232793061,0.265711063416736"
uk.org.mysociety.cons.ukparl.2025.epf,UKPARL.2025.EPF,Epping Forest,,epping-forest,E14001226,EPF,England,Eastern,county,74553,126.2456386,590.5392124,51.68154572,0.06306976891,"51.6815457155886,0.0630697689084805"
uk.org.mysociety.cons.ukparl.2025.hlw,UKPARL.2025.HLW,Harlow,,harlow,E14001267,HLW,England,Eastern,county,73479,153.3241552,479.2395556,51.79768808,0.1748625707,"51.7976880809203,0.174862570683042"
uk.org.mysociety.cons.ukparl.2025.chm,UKPARL.2025.CHM,Chelmsford,,chelmsford,E14001159,CHM,England,Eastern,borough,76454,33.43719996,2286.495284,51.73246308,0.4817003774,"51.7324630771114,0.481700377389932"
uk.org.mysociety.cons.ukparl.2025.nwe,UKPARL.2025.NWE,North West Essex,,north-west-essex,E14001402,NWE,England,Eastern,county,76280,621.5081692,122.7337045,51.90488023,0.3031305369,"51.9048802259079,0.303130536922958"
uk.org.mysociety.cons.ukparl.2025.btr,UKPARL.2025.BTR,Braintree,,braintree,E14001121,BTR,England,Eastern,county,75662,516.7028302,146.4323313,51.97478651,0.5348153694,"51.9747865124155,0.534815369366357"
uk.org.mysociety.cons.ukparl.2025.ssf,UKPARL.2025.SSF,South Suffolk,,south-suffolk,E14001494,SSF,England,Eastern,county,71070,611.6400997,116.1957825,52.05062181,0.9153373026,"52.050621806779,0.915337302574852"
uk.org.mysociety.cons.ukparl.2025.ips,UKPARL.2025.IPS,Ipswich,,ipswich,E14001302,IPS,England,Eastern,borough,75117,32.30526642,2325.224594,52.05010104,1.166185597,"52.050101035894,1.16618559700846"
uk.org.mysociety.cons.ukparl.2025.wsf,UKPARL.2025.WSF,West Suffolk,,west-suffolk,E14001578,WSF,England,Eastern,county,76243,761.8868327,100.0712924,52.26783704,0.5580174068,"52.2678370385108,0.558017406847919"
uk.org.mysociety.cons.ukparl.2025.bes,UKPARL.2025.BES,Bury St Edmunds and Stowmarket,,bury-st-edmunds-and-stowmarket,E14001146,BES,England,Eastern,county,75655,402.4724227,187.9756121,52.27380343,0.8327410453,"52.2738034340085,0.832741045343393"
uk.org.mysociety.cons.ukparl.2025.csi,UKPARL.2025.CSI,Central Suffolk and North Ipswich,,central-suffolk-and-north-ipswich,E14001156,CSI,England,Eastern,county,71020,548.4141106,129.5006796,52.16587819,1.219456109,"52.1658781914606,1.21945610937031"
uk.org.mysociety.cons.ukparl.2025.sfc,UKPARL.2025.SFC,Suffolk Coastal,,suffolk-coastal,E14001530,SFC,England,Eastern,county,72663,699.3214741,103.9050032,52.1796369,1.474657493,"52.1796368966265,1.47465749273341"
uk.org.mysociety.cons.ukparl.2025.wav,UKPARL.2025.WAV,Waveney Valley,,waveney-valley,E14001569,WAV,England,Eastern,county,70540,988.9201565,71.33032888,52.36271946,1.238507477,"52.3627194604514,1.23850747656384"
uk.org.mysociety.cons.ukparl.2025.lwt,UKPARL.2025.LWT,Lowestoft,,lowestoft,E14001344,LWT,England,Eastern,county,73967,112.9186785,655.0466314,52.47599968,1.680063136,"52.475999682464,1.68006313600418"
uk.org.mysociety.cons.ukparl.2025.snf,UKPARL.2025.SNF,South Norfolk,,south-norfolk,E14001489,SNF,England,Eastern,county,69837,523.2385497,133.4706704,52.54761142,1.33270207,"52.547611416482,1.33270206974689"
uk.org.mysociety.cons.ukparl.2025.nrs,UKPARL.2025.NRS,Norwich South,,norwich-south,E14001409,NRS,England,Eastern,borough,73301,30.26826181,2421.711576,52.62457158,1.274202987,"52.6245715802061,1.27420298673476"
uk.org.mysociety.cons.ukparl.2025.nrn,UKPARL.2025.NRN,Norwich North,,norwich-north,E14001408,NRN,England,Eastern,borough,71441,42.06873277,1698.1971,52.65650953,1.299919,"52.6565095292008,1.29991900029704"
uk.org.mysociety.cons.ukparl.2025.lun,UKPARL.2025.LUN,Luton North,,luton-north,E14001345,LUN,England,Eastern,borough,73266,21.9233717,3341.91296,51.90680004,-0.4449418574,"51.9068000422501,-0.444941857448079"
uk.org.mysociety.cons.ukparl.2025.hit,UKPARL.2025.HIT,Hitchin,,hitchin,E14001289,HIT,England,Eastern,county,72112,227.0730437,317.571821,51.953286,-0.2992151042,"51.9532860040913,-0.29921510420347"
uk.org.mysociety.cons.ukparl.2025.hne,UKPARL.2025.HNE,North East Hertfordshire,,north-east-hertfordshire,E14001393,HNE,England,Eastern,county,76849,502.2538826,153.0082746,51.93391132,-0.05703125725,"51.933911316444,-0.0570312572467121"
uk.org.mysociety.cons.ukparl.2025.svg,UKPARL.2025.SVG,Stevenage,,stevenage,E14001516,SVG,England,Eastern,county,70370,63.4225382,1109.542475,51.88175408,-0.1941399159,"51.8817540831096,-0.19413991594168"
uk.org.mysociety.cons.ukparl.2025.has,UKPARL.2025.HAS,Hertford and Stortford,,hertford-and-stortford,E14001283,HAS,England,Eastern,county,75396,121.4084025,621.0113833,51.82625653,0.06211340144,"51.8262565282648,0.0621134014416333"
uk.org.mysociety.cons.ukparl.2025.wht,UKPARL.2025.WHT,Welwyn Hatfield,,welwyn-hatfield,E14001573,WHT,England,Eastern,county,74535,107.9343719,690.5585191,51.77756681,-0.206355057,"51.7775668059282,-0.206355056957187"
uk.org.mysociety.cons.ukparl.2025.bxb,UKPARL.2025.BXB,Broxbourne,,broxbourne,E14001139,BXB,England,Eastern,county,75454,86.64684153,870.8222789,51.74558939,-0.04060352672,"51.7455893912269,-0.0406035267183538"
uk.org.mysociety.cons.ukparl.2025.hmr,UKPARL.2025.HMR,Hertsmere,,hertsmere,E14001284,HMR,England,Eastern,county,73256,119.7533057,611.7242409,51.68423638,-0.2520120102,"51.6842363804919,-0.25201201016433"
uk.org.mysociety.cons.ukparl.2025.swh,UKPARL.2025.SWH,South West Hertfordshire,,south-west-hertfordshire,E14001496,SWH,England,Eastern,county,71552,97.14920237,736.5165977,51.66554352,-0.4607149594,"51.6655435183621,-0.460714959414363"
uk.org.mysociety.cons.ukparl.2025.wat,UKPARL.2025.WAT,Watford,,watford,E14001568,WAT,England,Eastern,borough,70576,24.40773268,2891.542648,51.66723193,-0.4000213066,"51.6672319288836,-0.400021306581805"
uk.org.mysociety.cons.ukparl.2025.hml,UKPARL.2025.HML,Hemel Hempstead,,hemel-hempstead,E14001278,HML,England,Eastern,county,70496,57.3809008,1228.5621,51.73626336,-0.4937467264,"51.736263361505,-0.493746726422151"
uk.org.mysociety.cons.ukparl.2025.hab,UKPARL.2025.HAB,Harpenden and Berkhamsted,,harpenden-and-berkhamsted,E14001268,HAB,England,Eastern,county,71635,248.282172,288.5225283,51.79683945,-0.4771244911,"51.7968394532645,-0.477124491099073"
uk.org.mysociety.cons.ukparl.2025.sta,UKPARL.2025.STA,St Albans,,st-albans,E14001507,STA,England,Eastern,county,70881,59.69416926,1187.402403,51.73342132,-0.3266940779,"51.7334213239935,-0.326694077865289"
uk.org.mysociety.cons.ukparl.2025.ser,UKPARL.2025.SER,Southend East and Rochford,,southend-east-and-rochford,E14001501,SER,England,Eastern,county,70094,248.4496334,282.1255924,51.57778636,0.8414051896,"51.5777863605108,0.841405189577236"
uk.org.mysociety.cons.ukparl.2025.swl,UKPARL.2025.SWL,Southend West and Leigh,,southend-west-and-leigh,E14001502,SWL,England,Eastern,borough,76824,27.47368308,2796.275977,51.5509357,0.670797718,"51.5509356979604,0.67079771798868"
uk.org.mysociety.cons.ukparl.2025.hpk,UKPARL.2025.HPK,High Peak,,high-peak,E14001287,HPK,England,East Midlands,county,73960,540.2540007,136.8985698,53.37295028,-1.87393858,"53.3729502755455,-1.87393857964286"
uk.org.mysociety.cons.ukparl.2025.ded,UKPARL.2025.DED,Derbyshire Dales,,derbyshire-dales,E14001195,DED,England,East Midlands,county,71435,907.6846875,78.70023697,53.11081409,-1.680628225,"53.1108140918164,-1.68062822500414"
uk.org.mysociety.cons.ukparl.2025.sde,UKPARL.2025.SDE,South Derbyshire,,south-derbyshire,E14001483,SDE,England,East Midlands,county,71202,290.9201181,244.7475976,52.82203078,-1.540032031,"52.8220307768053,-1.5400320313325"
uk.org.mysociety.cons.ukparl.2025.des,UKPARL.2025.DES,Derby South,,derby-south,E14001194,DES,England,East Midlands,borough,72067,31.22066435,2308.310905,52.89240111,-1.460916064,"52.8924011143486,-1.46091606428126"
uk.org.mysociety.cons.ukparl.2025.den,UKPARL.2025.DEN,Derby North,,derby-north,E14001193,DEN,England,East Midlands,borough,71876,29.5083366,2435.786231,52.92181626,-1.490808214,"52.9218162571082,-1.49080821403873"
uk.org.mysociety.cons.ukparl.2025.erw,UKPARL.2025.ERW,Erewash,,erewash,E14001228,ERW,England,East Midlands,county,71986,60.04296509,1198.908147,52.92166207,-1.30852411,"52.9216620666233,-1.30852411038329"
uk.org.mysociety.cons.ukparl.2025.mde,UKPARL.2025.MDE,Mid Derbyshire,,mid-derbyshire,E14001362,MDE,England,East Midlands,county,70085,142.3242054,492.4320485,52.96643827,-1.471137408,"52.9664382703168,-1.47113740815962"
uk.org.mysociety.cons.ukparl.2025.abv,UKPARL.2025.ABV,Amber Valley,,amber-valley,E14001066,ABV,England,East Midlands,county,70625,124.8430971,565.7100923,53.03986536,-1.400091345,"53.0398653610909,-1.40009134544992"
uk.org.mysociety.cons.ukparl.2025.ned,UKPARL.2025.NED,North East Derbyshire,,north-east-derbyshire,E14001391,NED,England,East Midlands,county,72344,226.3231178,319.6491844,53.24677538,-1.459958227,"53.2467753847799,-1.45995822710849"
uk.org.mysociety.cons.ukparl.2025.chd,UKPARL.2025.CHD,Chesterfield,,chesterfield,E14001165,CHD,England,East Midlands,borough,70722,47.35676218,1493.38757,53.24837987,-1.416962292,"53.248379869588,-1.41696229150503"
uk.org.mysociety.cons.ukparl.2025.bol,UKPARL.2025.BOL,Bolsover,,bolsover,E14001109,BOL,England,East Midlands,county,74680,228.3135857,327.0939825,53.20203739,-1.309606673,"53.2020373898868,-1.30960667312712"
uk.org.mysociety.cons.ukparl.2025.rut,UKPARL.2025.RUT,Rutland and Stamford,,rutland-and-stamford,E14001458,RUT,England,East Midlands,county,70864,960.0572818,73.8122624,52.68449397,-0.6556182473,"52.6844939707245,-0.655618247325129"
uk.org.mysociety.cons.ukparl.2025.gab,UKPARL.2025.GAB,Grantham and Bourne,,grantham-and-bourne,E14001253,GAB,England,East Midlands,county,72071,751.9960189,95.83960312,52.92160166,-0.4983115065,"52.921601660797,-0.498311506454355"
uk.org.mysociety.cons.ukparl.2025.slr,UKPARL.2025.SLR,Sleaford and North Hykeham,,sleaford-and-north-hykeham,E14001476,SLR,England,East Midlands,county,73380,718.8803012,102.0754079,53.10806615,-0.4616950375,"53.108066150971,-0.461695037517603"
uk.org.mysociety.cons.ukparl.2025.lnc,UKPARL.2025.LNC,Lincoln,,lincoln,E14001336,LNC,England,East Midlands,borough,74128,63.93092238,1159.501494,53.21638038,-0.5621086202,"53.2163803796986,-0.562108620240652"
uk.org.mysociety.cons.ukparl.2025.gnb,UKPARL.2025.GNB,Gainsborough,,gainsborough,E14001243,GNB,England,East Midlands,county,74750,1157.652129,64.57034729,53.39275474,-0.4771146444,"53.3927547424572,-0.477114644418999"
uk.org.mysociety.cons.ukparl.2025.lah,UKPARL.2025.LAH,Louth and Horncastle,,louth-and-horncastle,E14001343,LAH,England,East Midlands,county,75959,1336.384604,56.83917621,53.2961023,-0.02097792807,"53.296102299269,-0.0209779280738773"
uk.org.mysociety.cons.ukparl.2025.bas,UKPARL.2025.BAS,Boston and Skegness,,boston-and-skegness,E14001114,BAS,England,East Midlands,county,75806,892.265354,84.95903115,53.05662137,0.08322917222,"53.0566213662037,0.0832291722168291"
uk.org.mysociety.cons.ukparl.2025.shd,UKPARL.2025.SHD,South Holland and The Deepings,,south-holland-and-the-deepings,E14001487,SHD,England,East Midlands,county,76139,844.2724853,90.18296975,52.79353939,-0.04101896197,"52.7935393926807,-0.0410189619732473"
uk.org.mysociety.cons.ukparl.2025.rcf,UKPARL.2025.RCF,Rushcliffe,,rushcliffe,E14001457,RCF,England,East Midlands,county,76171,289.7127608,262.9190367,52.87423616,-1.089740239,"52.8742361611387,-1.08974023887587"
uk.org.mysociety.cons.ukparl.2025.ngs,UKPARL.2025.NGS,Nottingham South,,nottingham-south,E14001412,NGS,England,East Midlands,borough,76076,32.30023918,2355.276677,52.93727521,-1.19206506,"52.9372752103054,-1.19206506049354"
uk.org.mysociety.cons.ukparl.2025.nge,UKPARL.2025.NGE,Nottingham East,,nottingham-east,E14001410,NGE,England,East Midlands,borough,75327,21.67565073,3475.189786,52.96518888,-1.140461389,"52.9651888834828,-1.14046138874763"
uk.org.mysociety.cons.ukparl.2025.ngn,UKPARL.2025.NGN,Nottingham North and Kimberley,,nottingham-north-and-kimberley,E14001411,NGN,England,East Midlands,borough,74515,40.01035666,1862.392796,52.99426993,-1.217816769,"52.9942699258086,-1.21781676916041"
uk.org.mysociety.cons.ukparl.2025.bxt,UKPARL.2025.BXT,Broxtowe,,broxtowe,E14001140,BXT,England,East Midlands,county,72461,60.72615129,1193.242095,52.97003344,-1.266782234,"52.9700334442134,-1.26678223354912"
uk.org.mysociety.cons.ukparl.2025.asf,UKPARL.2025.ASF,Ashfield,,ashfield,E14001068,ASF,England,East Midlands,county,69819,99.25539261,703.4277752,53.10571236,-1.265040886,"53.105712363673,-1.26504088576553"
uk.org.mysociety.cons.ukparl.2025.man,UKPARL.2025.MAN,Mansfield,,mansfield,E14001355,MAN,England,East Midlands,county,74680,70.84510837,1054.130648,53.1718091,-1.168108133,"53.1718090975984,-1.16810813278232"
uk.org.mysociety.cons.ukparl.2025.ged,UKPARL.2025.GED,Gedling,,gedling,E14001245,GED,England,East Midlands,county,75795,63.96373841,1184.968263,52.99847458,-1.093922199,"52.9984745769037,-1.09392219885594"
uk.org.mysociety.cons.ukparl.2025.swf,UKPARL.2025.SWF,Sherwood Forest,,sherwood-forest,E14001471,SWF,England,East Midlands,county,76543,309.8754211,247.0121694,53.11436795,-1.07124677,"53.1143679502983,-1.07124676960188"
uk.org.mysociety.cons.ukparl.2025.nwk,UKPARL.2025.NWK,Newark,,newark,E14001375,NWK,England,East Midlands,county,76478,774.6241239,98.72917411,53.15080201,-0.8635732931,"53.1508020071828,-0.863573293097817"
uk.org.mysociety.cons.ukparl.2025.bsl,UKPARL.2025.BSL,Bassetlaw,,bassetlaw,E14001079,BSL,England,East Midlands,county,75773,398.5193604,190.1363084,53.35430659,-1.015655021,"53.3543065858672,-1.01565502093377"
uk.org.mysociety.cons.ukparl.2025.nhs,UKPARL.2025.NHS,Northampton South,,northampton-south,E14001407,NHS,England,East Midlands,borough,71512,49.90881651,1432.853051,52.22962253,-0.8886155037,"52.2296225272642,-0.888615503723374"
uk.org.mysociety.cons.ukparl.2025.snh,UKPARL.2025.SNH,South Northamptonshire,,south-northamptonshire,E14001490,SNH,England,East Midlands,county,76555,633.2283092,120.8963637,52.12808383,-1.005508953,"52.1280838290509,-1.00550895281793"
uk.org.mysociety.cons.ukparl.2025.dav,UKPARL.2025.DAV,Daventry,,daventry,E14001192,DAV,England,East Midlands,county,76539,780.6600173,98.04396063,52.3059975,-1.031864599,"52.3059974959386,-1.03186459891806"
uk.org.mysociety.cons.ukparl.2025.nhn,UKPARL.2025.NHN,Northampton North,,northampton-north,E14001406,NHN,England,East Midlands,borough,75713,30.86312239,2453.186655,52.26005414,-0.8841503948,"52.2600541444868,-0.8841503947713"
uk.org.mysociety.cons.ukparl.2025.wbr,UKPARL.2025.WBR,Wellingborough and Rushden,,wellingborough-and-rushden,E14001571,WBR,England,East Midlands,county,76669,91.59492948,837.0441512,52.30334619,-0.6303271567,"52.303346193852,-0.63032715671646"
uk.org.mysociety.cons.ukparl.2025.cor,UKPARL.2025.COR,Corby and East Northamptonshire,,corby-and-east-northamptonshire,E14001179,COR,England,East Midlands,county,76748,521.8451142,147.0704581,52.47555762,-0.535055239,"52.4755576157223,-0.535055239045618"
uk.org.mysociety.cons.ukparl.2025.ket,UKPARL.2025.KET,Kettering,,kettering,E14001311,KET,England,East Midlands,county,76163,258.8896785,294.1909482,52.43235551,-0.7623741195,"52.4323555143599,-0.762374119548041"
uk.org.mysociety.cons.ukparl.2025.how,UKPARL.2025.HOW,"Harborough, Oadby and Wigston",,harborough-oadby-and-wigston,E14001266,HOW,England,East Midlands,county,74810,166.1535494,450.2461746,52.54083817,-0.9940699875,"52.5408381683509,-0.994069987451904"
uk.org.mysociety.cons.ukparl.2025.mle,UKPARL.2025.MLE,Mid Leicestershire,,mid-leicestershire,E14001364,MLE,England,East Midlands,county,76173,137.7090799,553.1443537,52.68093312,-1.232639021,"52.6809331245638,-1.23263902124667"
uk.org.mysociety.cons.ukparl.2025.sle,UKPARL.2025.SLE,South Leicestershire,,south-leicestershire,E14001488,SLE,England,East Midlands,county,75634,331.6937984,228.0235578,52.50689169,-1.177598395,"52.5068916899819,-1.17759839471018"
uk.org.mysociety.cons.ukparl.2025.lew,UKPARL.2025.LEW,Leicester West,,leicester-west,E14001328,LEW,England,East Midlands,borough,72848,32.68254063,2228.957682,52.64361698,-1.161543335,"52.643616979285,-1.16154333450904"
uk.org.mysociety.cons.ukparl.2025.les,UKPARL.2025.LES,Leicester South,,leicester-south,E14001327,LES,England,East Midlands,borough,71007,19.18459678,3701.250583,52.61565055,-1.118608667,"52.6156505511718,-1.1186086666143"
uk.org.mysociety.cons.ukparl.2025.lee,UKPARL.2025.LEE,Leicester East,,leicester-east,E14001326,LEE,England,East Midlands,borough,76465,21.47489449,3560.669415,52.64911025,-1.08699794,"52.6491102543717,-1.08699794042918"
uk.org.mysociety.cons.ukparl.2025.hkb,UKPARL.2025.HKB,Hinckley and Bosworth,,hinckley-and-bosworth,E14001288,HKB,England,East Midlands,county,75683,290.0237753,260.954468,52.61837363,-1.427094322,"52.6183736313338,-1.42709432234493"
uk.org.mysociety.cons.ukparl.2025.nwl,UKPARL.2025.NWL,North West Leicestershire,,north-west-leicestershire,E14001404,NWL,England,East Midlands,county,75373,236.8768873,318.1948262,52.76396569,-1.384826921,"52.7639656853934,-1.38482692117405"
uk.org.mysociety.cons.ukparl.2025.lbo,UKPARL.2025.LBO,Loughborough,,loughborough,E14001342,LBO,England,East Midlands,county,73902,122.5114472,603.2252634,52.77355032,-1.18253016,"52.7735503182593,-1.18253016022975"
uk.org.mysociety.cons.ukparl.2025.mas,UKPARL.2025.MAS,Melton and Syston,,melton-and-syston,E14001357,MAS,England,East Midlands,county,71615,569.68369,125.7101112,52.78332383,-0.8873123751,"52.7833238312584,-0.887312375145472"
uk.org.mysociety.cons.ukparl.2025.ewh,UKPARL.2025.EWH,Edmonton and Winchmore Hill,,edmonton-and-winchmore-hill,E14001221,EWH,England,London,borough,75204,21.92923064,3429.395278,51.62815535,-0.06797683213,"51.6281553459128,-0.0679768321328096"
uk.org.mysociety.cons.ukparl.2025.enf,UKPARL.2025.ENF,Enfield North,,enfield-north,E14001225,ENF,England,London,borough,76824,40.63194437,1890.72911,51.66658737,-0.07464291183,"51.6665873744892,-0.0746429118281461"
uk.org.mysociety.cons.ukparl.2025.hsp,UKPARL.2025.HSP,Holborn and St Pancras,,holborn-and-st-pancras,E14001290,HSP,England,London,borough,75475,9.287184489,8126.790212,51.53470842,-0.1356205338,"51.5347084231879,-0.135620533796341"
uk.org.mysociety.cons.ukparl.2025.hay,UKPARL.2025.HAY,Hayes and Harlington,,hayes-and-harlington,E14001276,HAY,England,London,borough,72897,45.02845598,1618.909607,51.49485106,-0.4436900125,"51.4948510602821,-0.443690012546184"
uk.org.mysociety.cons.ukparl.2025.eln,UKPARL.2025.ELN,Ealing North,,ealing-north,E14001208,ELN,England,London,borough,72985,22.96949977,3177.474509,51.53763812,-0.3506107571,"51.5376381218551,-0.350610757136401"
uk.org.mysociety.cons.ukparl.2025.els,UKPARL.2025.ELS,Ealing Southall,,ealing-southall,E14001209,ELS,England,London,borough,75085,16.16835028,4643.949363,51.5075335,-0.3551145069,"51.5075334967747,-0.355114506930993"
uk.org.mysociety.cons.ukparl.2025.eca,UKPARL.2025.ECA,Ealing Central and Acton,,ealing-central-and-acton,E14001207,ECA,England,London,borough,75399,20.48883136,3680.00491,51.51680563,-0.2715584984,"51.5168056268387,-0.271558498358987"
uk.org.mysociety.cons.ukparl.2025.crw,UKPARL.2025.CRW,Croydon West,,croydon-west,E14001188,CRW,England,London,borough,70812,14.47876017,4890.750256,51.38244824,-0.1046479648,"51.3824482441683,-0.104647964793747"
uk.org.mysociety.cons.ukparl.2025.scn,UKPARL.2025.SCN,Streatham and Croydon North,,streatham-and-croydon-north,E14001527,SCN,England,London,borough,76050,13.77229935,5521.953746,51.41819921,-0.1128285392,"51.418199214391,-0.112828539204271"
uk.org.mysociety.cons.ukparl.2025.cre,UKPARL.2025.CRE,Croydon East,,croydon-east,E14001186,CRE,England,London,borough,75346,26.43449475,2850.290907,51.3617054,-0.04623149836,"51.3617054001571,-0.0462314983569048"
uk.org.mysociety.cons.ukparl.2025.cbh,UKPARL.2025.CBH,Clapham and Brixton Hill,,clapham-and-brixton-hill,E14001175,CBH,England,London,borough,75460,7.610883984,9914.748426,51.45745972,-0.1303737611,"51.457459718651,-0.130373761130576"
uk.org.mysociety.cons.ukparl.2025.dwn,UKPARL.2025.DWN,Dulwich and West Norwood,,dulwich-and-west-norwood,E14001205,DWN,England,London,borough,74314,14.47245962,5134.85627,51.44471564,-0.0929139728,"51.4447156380945,-0.0929139728029496"
uk.org.mysociety.cons.ukparl.2025.lww,UKPARL.2025.LWW,Lewisham West and East Dulwich,,lewisham-west-and-east-dulwich,E14001333,LWW,England,London,borough,69904,11.42602937,6117.96082,51.44432169,-0.05395714227,"51.4443216944809,-0.0539571422686795"
uk.org.mysociety.cons.ukparl.2025.vcg,UKPARL.2025.VCG,Vauxhall and Camberwell Green,,vauxhall-and-camberwell-green,E14001559,VCG,England,London,borough,69995,7.684489022,9108.608237,51.48516186,-0.1119487322,"51.4851618558683,-0.111948732167979"
uk.org.mysociety.cons.ukparl.2025.bos,UKPARL.2025.BOS,Bermondsey and Old Southwark,,bermondsey-and-old-southwark,E14001085,BOS,England,London,borough,70602,9.354256737,7547.579887,51.49875878,-0.06903964924,"51.4987587829821,-0.0690396492388488"
uk.org.mysociety.cons.ukparl.2025.lwn,UKPARL.2025.LWN,Lewisham North,,lewisham-north,E14001332,LWN,England,London,borough,73504,12.06996314,6089.828043,51.4701516,-0.02570514881,"51.4701515951197,-0.0257051488117569"
uk.org.mysociety.cons.ukparl.2025.pkm,UKPARL.2025.PKM,Peckham,,peckham,E14001421,PKM,England,London,borough,71176,8.123357153,8761.894702,51.47775617,-0.07300195536,"51.477756174083,-0.0730019553630371"
uk.org.mysociety.cons.ukparl.2025.lwe,UKPARL.2025.LWE,Lewisham East,,lewisham-east,E14001331,LWE,England,London,borough,71706,15.86784167,4518.951064,51.43635274,-0.002884350652,"51.4363527364167,-0.00288435065170785"
uk.org.mysociety.cons.ukparl.2025.gaw,UKPARL.2025.GAW,Greenwich and Woolwich,,greenwich-and-woolwich,E14001257,GAW,England,London,borough,69824,17.33538797,4027.830246,51.48508611,0.02663221643,"51.4850861065866,0.0266322164335077"
uk.org.mysociety.cons.ukparl.2025.eac,UKPARL.2025.EAC,Eltham and Chislehurst,,eltham-and-chislehurst,E14001223,EAC,England,London,borough,74179,30.70829032,2415.601755,51.43742373,0.05794900669,"51.437423733902,0.0579490066893057"
uk.org.mysociety.cons.ukparl.2025.eat,UKPARL.2025.EAT,Erith and Thamesmead,,erith-and-thamesmead,E14001229,EAT,England,London,borough,76728,29.43197473,2606.960651,51.49119213,0.121035353,"51.4911921342154,0.121035353041022"
uk.org.mysociety.cons.ukparl.2025.bxc,UKPARL.2025.BXC,Bexleyheath and Crayford,,bexleyheath-and-crayford,E14001089,BXC,England,London,borough,69948,23.18103749,3017.466325,51.4649555,0.1657287338,"51.4649555032003,0.165728733751817"
uk.org.mysociety.cons.ukparl.2025.cwg,UKPARL.2025.CWG,Chingford and Woodford Green,,chingford-and-woodford-green,E14001167,CWG,England,London,borough,75677,22.75107569,3326.304261,51.61557703,0.01217342673,"51.6155770337333,0.0121734267328101"
uk.org.mysociety.cons.ukparl.2025.whw,UKPARL.2025.WHW,Walthamstow,,walthamstow,E14001563,WHW,England,London,borough,70867,16.18094513,4379.657643,51.58508917,-0.02779412362,"51.585089169701,-0.0277941236187209"
uk.org.mysociety.cons.ukparl.2025.law,UKPARL.2025.LAW,Leyton and Wanstead,,leyton-and-wanstead,E14001334,LAW,England,London,borough,71330,17.22430803,4141.240384,51.57013073,0.01586314796,"51.5701307269628,0.0158631479601415"
uk.org.mysociety.cons.ukparl.2025.iln,UKPARL.2025.ILN,Ilford North,,ilford-north,E14001300,ILN,England,London,borough,74684,27.24606801,2741.092769,51.59226563,0.09250844,"51.5922656271556,0.0925084400037945"
uk.org.mysociety.cons.ukparl.2025.ils,UKPARL.2025.ILS,Ilford South,,ilford-south,E14001301,ILS,England,London,borough,74065,15.22652394,4864.209343,51.56838353,0.1079418968,"51.5683835274826,0.107941896793362"
uk.org.mysociety.cons.ukparl.2025.bkg,UKPARL.2025.BKG,Barking,,barking,E14001073,BKG,England,London,borough,71822,20.40954345,3519.04001,51.53530548,0.1154659972,"51.5353054811179,0.115465997166578"
uk.org.mysociety.cons.ukparl.2025.whb,UKPARL.2025.WHB,West Ham and Beckton,,west-ham-and-beckton,E14001576,WHB,England,London,borough,70590,21.08042231,3348.604642,51.51525584,0.04157040875,"51.5152558405633,0.0415704087499902"
uk.org.mysociety.cons.ukparl.2025.ehm,UKPARL.2025.EHM,East Ham,,east-ham,E14001213,EHM,England,London,borough,70902,10.02047122,7075.71515,51.53948085,0.05248772615,"51.5394808482604,0.0524877261477861"
uk.org.mysociety.cons.ukparl.2025.sab,UKPARL.2025.SAB,Stratford and Bow,,stratford-and-bow,E14001525,SAB,England,London,borough,73849,11.28968759,6541.279323,51.53957119,-0.005709472628,"51.5395711904607,-0.00570947262778747"
uk.org.mysociety.cons.ukparl.2025.pal,UKPARL.2025.PAL,Poplar and Limehouse,,poplar-and-limehouse,E14001430,PAL,England,London,borough,75814,10.94657363,6925.82013,51.50628819,-0.02288900851,"51.5062881855584,-0.0228890085095357"
uk.org.mysociety.cons.ukparl.2025.bgs,UKPARL.2025.BGS,Bethnal Green and Stepney,,bethnal-green-and-stepney,E14001086,BGS,England,London,borough,77000,6.815573715,11297.65493,51.5211132,-0.05684157994,"51.5211132043535,-0.056841579937652"
uk.org.mysociety.cons.ukparl.2025.haw,UKPARL.2025.HAW,Harrow West,,harrow-west,E14001271,HAW,England,London,borough,74060,17.48268638,4236.191073,51.57907467,-0.3506922214,"51.5790746676524,-0.350692221423708"
uk.org.mysociety.cons.ukparl.2025.fel,UKPARL.2025.FEL,Feltham and Heston,,feltham-and-heston,E14001236,FEL,England,London,borough,75226,28.02067394,2684.660625,51.45718519,-0.4079657308,"51.4571851900516,-0.407965730798171"
uk.org.mysociety.cons.ukparl.2025.twi,UKPARL.2025.TWI,Twickenham,,twickenham,E14001556,TWI,England,London,borough,75889,27.77765885,2732.015697,51.42778487,-0.3439588387,"51.4277848738325,-0.343958838695649"
uk.org.mysociety.cons.ukparl.2025.hac,UKPARL.2025.HAC,Hammersmith and Chiswick,,hammersmith-and-chiswick,E14001264,HAC,England,London,borough,74746,13.17487491,5673.374549,51.49293397,-0.2504626472,"51.4929339685699,-0.250462647240242"
uk.org.mysociety.cons.ukparl.2025.bai,UKPARL.2025.BAI,Brentford and Isleworth,,brentford-and-isleworth,E14001124,BAI,England,London,borough,76354,23.08425366,3307.622639,51.47510483,-0.3451570734,"51.4751048270182,-0.345157073369646"
uk.org.mysociety.cons.ukparl.2025.kab,UKPARL.2025.KAB,Kensington and Bayswater,,kensington-and-bayswater,E14001310,KAB,England,London,borough,75980,11.51603399,6597.757531,51.50735739,-0.1957554763,"51.5073573890607,-0.195755476322795"
uk.org.mysociety.cons.ukparl.2025.obs,UKPARL.2025.OBS,Old Bexley and Sidcup,,old-bexley-and-sidcup,E14001414,OBS,England,London,borough,74317,26.98633354,2753.875398,51.43972389,0.1181706368,"51.4397238871641,0.118170636752726"
uk.org.mysociety.cons.ukparl.2025.bap,UKPARL.2025.BAP,Beckenham and Penge,,beckenham-and-penge,E14001083,BAP,England,London,borough,76625,22.87050422,3350.38525,51.39987631,-0.02985341306,"51.3998763059682,-0.0298534130577037"
uk.org.mysociety.cons.ukparl.2025.qpk,UKPARL.2025.QPK,Queen's Park and Maida Vale,,queen-s-park-and-maida-vale,E14001435,QPK,England,London,borough,75256,7.616116338,9881.151582,51.53127326,-0.2076371016,"51.5312732566103,-0.207637101580934"
uk.org.mysociety.cons.ukparl.2025.bea,UKPARL.2025.BEA,Brent East,,brent-east,E14001122,BEA,England,London,borough,75880,18.23782537,4160.583757,51.5565525,-0.2476246215,"51.5565524998114,-0.247624621464427"
uk.org.mysociety.cons.ukparl.2025.bwe,UKPARL.2025.BWE,Brent West,,brent-west,E14001123,BWE,England,London,borough,76463,18.70691369,4087.419297,51.56184487,-0.2968192244,"51.5618448676297,-0.296819224426057"
uk.org.mysociety.cons.ukparl.2025.swg,UKPARL.2025.SWG,Southgate and Wood Green,,southgate-and-wood-green,E14001503,SWG,England,London,borough,76034,24.74119221,3073.174459,51.63538302,-0.1290772829,"51.6353830169993,-0.129077282885733"
uk.org.mysociety.cons.ukparl.2025.fgg,UKPARL.2025.FGG,Finchley and Golders Green,,finchley-and-golders-green,E14001238,FGG,England,London,borough,75761,20.94115164,3617.804852,51.5881267,-0.189735683,"51.5881267042112,-0.189735683033038"
uk.org.mysociety.cons.ukparl.2025.hen,UKPARL.2025.HEN,Hendon,,hendon,E14001279,HEN,England,London,borough,71496,22.84289112,3129.901536,51.60316199,-0.2415807667,"51.6031619853249,-0.241580766655531"
uk.org.mysociety.cons.ukparl.2025.cpb,UKPARL.2025.CPB,Chipping Barnet,,chipping-barnet,E14001169,CPB,England,London,borough,76187,40.2065695,1894.889341,51.63814289,-0.2066556354,"51.6381428939087,-0.206655635442354"
uk.org.mysociety.cons.ukparl.2025.hfb,UKPARL.2025.HFB,Hornsey and Friern Barnet,,hornsey-and-friern-barnet,E14001293,HFB,England,London,borough,70565,13.92133624,5068.838134,51.59212575,-0.1332473659,"51.5921257515612,-0.13324736590713"
uk.org.mysociety.cons.ukparl.2025.tot,UKPARL.2025.TOT,Tottenham,,tottenham,E14001553,TOT,England,London,borough,75968,11.93018604,6367.712936,51.58917617,-0.07577896248,"51.5891761742407,-0.0757789624755858"
uk.org.mysociety.cons.ukparl.2025.hsn,UKPARL.2025.HSN,Hackney North and Stoke Newington,,hackney-north-and-stoke-newington,E14001259,HSN,England,London,borough,75401,9.021292605,8358.114885,51.56086823,-0.06116964252,"51.560868231033,-0.0611696425193571"
uk.org.mysociety.cons.ukparl.2025.put,UKPARL.2025.PUT,Putney,,putney,E14001434,PUT,England,London,borough,73041,14.13814413,5166.236766,51.45310886,-0.2217636265,"51.4531088641433,-0.221763626495581"
uk.org.mysociety.cons.ukparl.2025.bat,UKPARL.2025.BAT,Battersea,,battersea,E14001081,BAT,England,London,borough,71949,9.841514617,7310.764938,51.46765117,-0.1587209716,"51.4676511668992,-0.158720971595087"
uk.org.mysociety.cons.ukparl.2025.too,UKPARL.2025.TOO,Tooting,,tooting,E14001550,TOO,England,London,borough,76986,11.23637289,6851.49921,51.43677148,-0.1654909276,"51.4367714816339,-0.165490927623655"
uk.org.mysociety.cons.ukparl.2025.caw,UKPARL.2025.CAW,Carshalton and Wallington,,carshalton-and-wallington,E14001153,CAW,England,London,borough,72755,25.57307794,2844.984095,51.36133481,-0.1551437005,"51.3613348139369,-0.155143700454854"
uk.org.mysociety.cons.ukparl.2025.sac,UKPARL.2025.SAC,Sutton and Cheam,,sutton-and-cheam,E14001534,SAC,England,London,borough,71284,18.2692035,3901.866876,51.36313166,-0.2089471863,"51.3631316631345,-0.208947186313696"
uk.org.mysociety.cons.ukparl.2025.crs,UKPARL.2025.CRS,Croydon South,,croydon-south,E14001187,CRS,England,London,borough,71541,37.66753103,1899.275,51.32882807,-0.1060297631,"51.3288280691867,-0.106029763106266"
uk.org.mysociety.cons.ukparl.2025.isn,UKPARL.2025.ISN,Islington North,,islington-north,E14001305,ISN,England,London,borough,73970,7.383082663,10018.85031,51.5596115,-0.114337657,"51.5596114987265,-0.114337656988844"
uk.org.mysociety.cons.ukparl.2025.iss,UKPARL.2025.ISS,Islington South and Finsbury,,islington-south-and-finsbury,E14001306,ISS,England,London,borough,75905,8.066636236,9409.746241,51.53779559,-0.1043371534,"51.5377955943188,-0.10433715341654"
uk.org.mysociety.cons.ukparl.2025.hsd,UKPARL.2025.HSD,Hackney South and Shoreditch,,hackney-south-and-shoreditch,E14001260,HSD,England,London,borough,75197,8.067099731,9321.441721,51.54064505,-0.05960413128,"51.5406450548839,-0.0596041312789162"
uk.org.mysociety.cons.ukparl.2025.hae,UKPARL.2025.HAE,Harrow East,,harrow-east,E14001270,HAE,England,London,borough,76299,24.98144388,3054.226984,51.60949665,-0.3129877195,"51.6094966537128,-0.312987719529879"
uk.org.mysociety.cons.ukparl.2025.caf,UKPARL.2025.CAF,Chelsea and Fulham,,chelsea-and-fulham,E14001160,CAF,England,London,borough,76481,10.22367568,7480.773294,51.47983644,-0.1942892828,"51.4798364388266,-0.194289282808408"
uk.org.mysociety.cons.ukparl.2025.orp,UKPARL.2025.ORP,Orpington,,orpington,E14001417,ORP,England,London,borough,71571,67.87081995,1054.517981,51.35775571,0.09380369415,"51.357755707643,0.0938036941534041"
uk.org.mysociety.cons.ukparl.2025.bbh,UKPARL.2025.BBH,Bromley and Biggin Hill,,bromley-and-biggin-hill,E14001137,BBH,England,London,borough,70418,46.510944,1514.009262,51.36660222,0.02524918692,"51.3666022205939,0.0252491869194052"
uk.org.mysociety.cons.ukparl.2025.dar,UKPARL.2025.DAR,Dagenham and Rainham,,dagenham-and-rainham,E14001189,DAR,England,London,borough,73627,41.91652985,1756.51468,51.52769648,0.1853797431,"51.5276964832153,0.185379743126094"
uk.org.mysociety.cons.ukparl.2025.hau,UKPARL.2025.HAU,Hornchurch and Upminster,,hornchurch-and-upminster,E14001292,HAU,England,London,borough,76938,56.78457174,1354.91028,51.57059669,0.2515502061,"51.5705966881615,0.251550206149489"
uk.org.mysociety.cons.ukparl.2025.rmf,UKPARL.2025.RMF,Romford,,romford,E14001448,RMF,England,London,borough,73730,29.74652205,2478.609092,51.59098377,0.1807471939,"51.5909837729329,0.180747193910041"
uk.org.mysociety.cons.ukparl.2025.mam,UKPARL.2025.MAM,Mitcham and Morden,,mitcham-and-morden,E14001371,MAM,England,London,borough,76877,18.68234982,4114.953458,51.40095929,-0.1765477617,"51.4009592865084,-0.176547761671694"
uk.org.mysociety.cons.ukparl.2025.kas,UKPARL.2025.KAS,Kingston and Surbiton,,kingston-and-surbiton,E14001312,KAS,England,London,borough,75410,26.04646148,2895.210931,51.37826034,-0.2941477416,"51.3782603384036,-0.294147741627166"
uk.org.mysociety.cons.ukparl.2025.wim,UKPARL.2025.WIM,Wimbledon,,wimbledon,E14001586,WIM,England,London,borough,74641,22.91219958,3257.696832,51.41373759,-0.2243101787,"51.4137375873864,-0.224310178650399"
uk.org.mysociety.cons.ukparl.2025.rpk,UKPARL.2025.RPK,Richmond Park,,richmond-park,E14001445,RPK,England,London,borough,75037,36.52995555,2054.122401,51.44942493,-0.2793878274,"51.4494249288098,-0.279387827406813"
uk.org.mysociety.cons.ukparl.2025.uxb,UKPARL.2025.UXB,Uxbridge and South Ruislip,,uxbridge-and-south-ruislip,E14001558,UXB,England,London,borough,75042,40.37585525,1858.586017,51.5515903,-0.4508538868,"51.5515903002359,-0.450853886824162"
uk.org.mysociety.cons.ukparl.2025.rnp,UKPARL.2025.RNP,"Ruislip, Northwood and Pinner",,ruislip-northwood-and-pinner,E14001454,RNP,England,London,borough,72168,40.44981204,1784.136844,51.59777602,-0.4263458939,"51.5977760227733,-0.426345893852323"
uk.org.mysociety.cons.ukparl.2025.crk,UKPARL.2025.CRK,Cramlington and Killingworth,,cramlington-and-killingworth,E14001183,CRK,England,North East,county,73295,98.8843416,741.2194774,55.06590791,-1.578371832,"55.0659079114972,-1.57837183174893"
uk.org.mysociety.cons.ukparl.2025.bac,UKPARL.2025.BAC,Blaydon and Consett,,blaydon-and-consett,E14001106,BAC,England,North East,county,70163,113.6968853,617.1057354,54.91099231,-1.786368201,"54.9109923102777,-1.78636820145621"
uk.org.mysociety.cons.ukparl.2025.hex,UKPARL.2025.HEX,Hexham,,hexham,E14001285,HEX,England,North East,county,72738,2775.491766,26.20724762,55.07305834,-2.190549806,"55.0730583434005,-2.19054980568699"
uk.org.mysociety.cons.ukparl.2025.baa,UKPARL.2025.BAA,Blyth and Ashington,,blyth-and-ashington,E14001107,BAA,England,North East,county,75452,89.19502705,845.9216001,55.15238272,-1.5685563,"55.1523827151501,-1.56855630002728"
uk.org.mysociety.cons.ukparl.2025.gcw,UKPARL.2025.GCW,Gateshead Central and Whickham,,gateshead-central-and-whickham,E14001244,GCW,England,North East,borough,70994,42.25778799,1680.021681,54.93841869,-1.650206782,"54.9384186892186,-1.65020678200588"
uk.org.mysociety.cons.ukparl.2025.tyn,UKPARL.2025.TYN,Tynemouth,,tynemouth,E14001557,TYN,England,North East,borough,73022,35.08657863,2081.194658,55.02838093,-1.465763269,"55.0283809277746,-1.46576326899526"
uk.org.mysociety.cons.ukparl.2025.ncn,UKPARL.2025.NCN,Newcastle upon Tyne North,,newcastle-upon-tyne-north,E14001379,NCN,England,North East,borough,76503,32.32961771,2366.344096,55.01508856,-1.615914741,"55.0150885557919,-1.61591474079947"
uk.org.mysociety.cons.ukparl.2025.ncl,UKPARL.2025.NCL,Newcastle upon Tyne Central and West,,newcastle-upon-tyne-central-and-west,E14001377,NCL,England,North East,borough,76460,33.3026561,2295.912968,54.98368647,-1.671985861,"54.9836864723847,-1.67198586050607"
uk.org.mysociety.cons.ukparl.2025.nce,UKPARL.2025.NCE,Newcastle upon Tyne East and Wallsend,,newcastle-upon-tyne-east-and-wallsend,E14001378,NCE,England,North East,borough,76875,28.05702665,2739.95534,54.99038767,-1.54527982,"54.9903876675168,-1.5452798198126"
uk.org.mysociety.cons.ukparl.2025.sun,UKPARL.2025.SUN,Sunderland Central,,sunderland-central,E14001531,SUN,England,North East,borough,72688,30.63132955,2372.995266,54.90320863,-1.387701489,"54.9032086257392,-1.38770148933406"
uk.org.mysociety.cons.ukparl.2025.ssh,UKPARL.2025.SSH,South Shields,,south-shields,E14001492,SSH,England,North East,borough,69725,37.01004851,1883.947815,54.96640838,-1.409879036,"54.9664083819371,-1.40987903607461"
uk.org.mysociety.cons.ukparl.2025.jge,UKPARL.2025.JGE,Jarrow and Gateshead East,,jarrow-and-gateshead-east,E14001307,JGE,England,North East,borough,71106,43.64787707,1629.082667,54.9558855,-1.505788104,"54.9558854976278,-1.50578810407035"
uk.org.mysociety.cons.ukparl.2025.dhm,UKPARL.2025.DHM,City of Durham,,city-of-durham,E14001173,DHM,England,North East,county,72878,215.5495858,338.1031781,54.76975779,-1.645936789,"54.7697577867031,-1.64593678850349"
uk.org.mysociety.cons.ukparl.2025.eas,UKPARL.2025.EAS,Easington,,easington,E14001211,EAS,England,North East,county,70043,149.7820878,467.6326856,54.76724913,-1.366050011,"54.7672491251747,-1.36605001062092"
uk.org.mysociety.cons.ukparl.2025.hpl,UKPARL.2025.HPL,Hartlepool,,hartlepool,E14001272,HPL,England,North East,county,71228,98.34667188,724.2543,54.66901414,-1.255646746,"54.6690141442892,-1.25564674578158"
uk.org.mysociety.cons.ukparl.2025.ndh,UKPARL.2025.NDH,North Durham,,north-durham,E14001389,NDH,England,North East,county,73079,229.7416077,318.0921416,54.8368013,-1.752283564,"54.8368012962207,-1.75228356395164"
uk.org.mysociety.cons.ukparl.2025.wgs,UKPARL.2025.WGS,Washington and Gateshead South,,washington-and-gateshead-south,E14001567,WGS,England,North East,borough,71775,69.79125195,1028.424022,54.90804591,-1.552601317,"54.9080459059942,-1.55260131672926"
uk.org.mysociety.cons.ukparl.2025.hss,UKPARL.2025.HSS,Houghton and Sunderland South,,houghton-and-sunderland-south,E14001295,HSS,England,North East,county,76883,69.1428022,1111.945099,54.85393135,-1.450099065,"54.8539313495559,-1.45009906533981"
uk.org.mysociety.cons.ukparl.2025.bia,UKPARL.2025.BIA,Bishop Auckland,,bishop-auckland,E14001101,BIA,England,North East,county,70879,1335.607989,53.0687152,54.64780499,-2.002561415,"54.6478049925025,-2.0025614145732"
uk.org.mysociety.cons.ukparl.2025.nas,UKPARL.2025.NAS,Newton Aycliffe and Spennymoor,,newton-aycliffe-and-spennymoor,E14001382,NAS,England,North East,county,71299,246.5244248,289.2167787,54.67113235,-1.504579635,"54.6711323546889,-1.50457963470004"
uk.org.mysociety.cons.ukparl.2025.skn,UKPARL.2025.SKN,Stockton North,,stockton-north,E14001518,SKN,England,North East,county,69779,91.96138768,758.7858531,54.6028186,-1.289705851,"54.602818597504,-1.28970585066854"
uk.org.mysociety.cons.ukparl.2025.mte,UKPARL.2025.MTE,Middlesbrough and Thornaby East,,middlesbrough-and-thornaby-east,E14001367,MTE,England,North East,borough,71742,36.29327561,1976.729816,54.55603101,-1.248148041,"54.5560310057101,-1.24814804121159"
uk.org.mysociety.cons.ukparl.2025.mcl,UKPARL.2025.MCL,Middlesbrough South and East Cleveland,,middlesbrough-south-and-east-cleveland,E14001368,MCL,England,North East,county,69967,197.1319221,354.9247593,54.53472603,-1.012288924,"54.5347260302773,-1.01228892377468"
uk.org.mysociety.cons.ukparl.2025.red,UKPARL.2025.RED,Redcar,,redcar,E14001440,RED,England,North East,borough,71331,82.62462063,863.3141,54.58947934,-1.102341154,"54.5894793360573,-1.10234115365496"
uk.org.mysociety.cons.ukparl.2025.drl,UKPARL.2025.DRL,Darlington,,darlington,E14001190,DRL,England,North East,county,70446,113.3059317,621.7326749,54.56092866,-1.604299754,"54.5609286596455,-1.60429975398042"
uk.org.mysociety.cons.ukparl.2025.skw,UKPARL.2025.SKW,Stockton West,,stockton-west,E14001519,SKW,England,North East,county,70108,194.2283098,360.9566498,54.53124244,-1.415790327,"54.5312424448272,-1.41579032692994"
uk.org.mysociety.cons.ukparl.2025.nnu,UKPARL.2025.NNU,North Northumberland,,north-northumberland,E14001397,NNU,England,North East,county,72541,2185.894085,33.1859629,55.46008824,-1.93590276,"55.4600882416707,-1.93590276029801"
uk.org.mysociety.cons.ukparl.2025.laa,UKPARL.2025.LAA,Leigh and Atherton,,leigh-and-atherton,E14001329,LAA,England,North West,borough,76363,53.09844506,1438.140042,53.49563493,-2.530030463,"53.4956349301743,-2.53003046333592"
uk.org.mysociety.cons.ukparl.2025.mkf,UKPARL.2025.MKF,Makerfield,,makerfield,E14001350,MKF,England,North West,borough,76517,56.94386511,1343.726841,53.51685426,-2.629273626,"53.5168542627799,-2.62927362556566"
uk.org.mysociety.cons.ukparl.2025.car,UKPARL.2025.CAR,Carlisle,,carlisle,E14001152,CAR,England,North West,county,75868,916.055443,82.82031462,54.98753888,-2.78175365,"54.9875388802984,-2.78175365032513"
uk.org.mysociety.cons.ukparl.2025.mor,UKPARL.2025.MOR,Morecambe and Lunesdale,,morecambe-and-lunesdale,E14001372,MOR,England,North West,county,76040,903.9442921,84.12022806,54.17781431,-2.631671919,"54.1778143114389,-2.63167191867791"
uk.org.mysociety.cons.ukparl.2025.lan,UKPARL.2025.LAN,Lancaster and Wyre,,lancaster-and-wyre,E14001318,LAN,England,North West,county,74992,448.9478165,167.0394581,53.93723275,-2.794333387,"53.9372327500646,-2.79433338700552"
uk.org.mysociety.cons.ukparl.2025.riv,UKPARL.2025.RIV,Ribble Valley,,ribble-valley,E14001443,RIV,England,North West,county,75993,648.8935685,117.1116554,53.89160622,-2.505477721,"53.8916062217138,-2.50547772053117"
uk.org.mysociety.cons.ukparl.2025.bps,UKPARL.2025.BPS,Blackpool South,,blackpool-south,E14001105,BPS,England,North West,borough,76071,32.41851844,2346.529195,53.80540557,-3.03422549,"53.8054055708243,-3.03422549001734"
uk.org.mysociety.cons.ukparl.2025.fyl,UKPARL.2025.FYL,Fylde,,fylde,E14001242,FYL,England,North West,county,75114,191.2266562,392.800886,53.78653614,-2.925922374,"53.7865361360688,-2.92592237363264"
uk.org.mysociety.cons.ukparl.2025.pre,UKPARL.2025.PRE,Preston,,preston,E14001433,PRE,England,North West,borough,72946,41.03341731,1777.721788,53.77203349,-2.709595014,"53.7720334864755,-2.70959501428412"
uk.org.mysociety.cons.ukparl.2025.bur,UKPARL.2025.BUR,Burnley,,burnley,E14001142,BUR,England,North West,county,75436,119.581085,630.8355537,53.7820996,-2.223052113,"53.7820995969078,-2.22305211334642"
uk.org.mysociety.cons.ukparl.2025.pdl,UKPARL.2025.PDL,Pendle and Clitheroe,,pendle-and-clitheroe,E14001422,PDL,England,North West,county,76941,236.9440529,324.7222247,53.86333073,-2.237430274,"53.8633307318075,-2.23743027370269"
uk.org.mysociety.cons.ukparl.2025.bpn,UKPARL.2025.BPN,Blackpool North and Fleetwood,,blackpool-north-and-fleetwood,E14001104,BPN,England,North West,borough,75396,52.13276489,1446.230603,53.89260121,-3.028331375,"53.8926012147141,-3.02833137486149"
uk.org.mysociety.cons.ukparl.2025.bbn,UKPARL.2025.BBN,Blackburn,,blackburn,E14001102,BBN,England,North West,borough,70586,39.59374287,1782.756438,53.74431355,-2.497898941,"53.7443135538945,-2.49789894059394"
uk.org.mysociety.cons.ukparl.2025.hyb,UKPARL.2025.HYB,Hyndburn,,hyndburn,E14001299,HYB,England,North West,county,71145,90.26350075,788.1923414,53.75008466,-2.379214058,"53.7500846624722,-2.37921405812567"
uk.org.mysociety.cons.ukparl.2025.rad,UKPARL.2025.RAD,Rossendale and Darwen,,rossendale-and-darwen,E14001450,RAD,England,North West,county,74593,218.2032204,341.85105,53.6823458,-2.345916244,"53.6823458023925,-2.34591624389452"
uk.org.mysociety.cons.ukparl.2025.sop,UKPARL.2025.SOP,Southport,,southport,E14001504,SOP,England,North West,county,74168,186.2647239,398.1859714,53.6780968,-2.951434714,"53.6780968017586,-2.95143471437462"
uk.org.mysociety.cons.ukparl.2025.sri,UKPARL.2025.SRI,South Ribble,,south-ribble,E14001491,SRI,England,North West,county,72029,141.8401632,507.8180846,53.68654365,-2.749836293,"53.6865436539249,-2.74983629257042"
uk.org.mysociety.cons.ukparl.2025.wla,UKPARL.2025.WLA,West Lancashire,,west-lancashire,E14001577,WLA,England,North West,county,73652,262.3559026,280.733154,53.57329332,-2.866826423,"53.573293324502,-2.86682642323968"
uk.org.mysociety.cons.ukparl.2025.sef,UKPARL.2025.SEF,Sefton Central,,sefton-central,E14001463,SEF,England,North West,county,74746,103.8163457,719.9829612,53.5344868,-3.024182054,"53.5344868020615,-3.02418205440774"
uk.org.mysociety.cons.ukparl.2025.btl,UKPARL.2025.BTL,Bootle,,bootle,E14001113,BTL,England,North West,borough,75194,28.12762709,2673.314736,53.4690857,-2.999965194,"53.4690856951423,-2.99996519393475"
uk.org.mysociety.cons.ukparl.2025.rcd,UKPARL.2025.RCD,Rochdale,,rochdale,E14001446,RCD,England,North West,county,71697,79.71795327,899.3833516,53.63282173,-2.103448727,"53.6328217334968,-2.10344872660041"
uk.org.mysociety.cons.ukparl.2025.crl,UKPARL.2025.CRL,Chorley,,chorley,E14001170,CRL,England,North West,county,74568,136.7086413,545.4519867,53.66630998,-2.60045073,"53.6663099773711,-2.60045072997487"
uk.org.mysociety.cons.ukparl.2025.bun,UKPARL.2025.BUN,Bury North,,bury-north,E14001144,BUN,England,North West,borough,77009,58.08140208,1325.880527,53.61343332,-2.324529806,"53.6134333156386,-2.32452980614717"
uk.org.mysociety.cons.ukparl.2025.hmn,UKPARL.2025.HMN,Heywood and Middleton North,,heywood-and-middleton-north,E14001286,HMN,England,North West,county,73306,71.75134603,1021.667245,53.60524479,-2.214489476,"53.6052447897755,-2.21448947576777"
uk.org.mysociety.cons.ukparl.2025.bus,UKPARL.2025.BUS,Bury South,,bury-south,E14001145,BUS,England,North West,borough,74598,44.66526013,1670.15707,53.54889021,-2.293873399,"53.5488902053216,-2.29387339908846"
uk.org.mysociety.cons.ukparl.2025.blw,UKPARL.2025.BLW,Bolton West,,bolton-west,E14001112,BLW,England,North West,county,72125,77.51676406,930.4438966,53.5751969,-2.514073827,"53.5751968985932,-2.51407382720394"
uk.org.mysociety.cons.ukparl.2025.bln,UKPARL.2025.BLN,Bolton North East,,bolton-north-east,E14001110,BLN,England,North West,borough,77020,41.10143203,1873.900645,53.59879499,-2.410917409,"53.5987949933849,-2.41091740886018"
uk.org.mysociety.cons.ukparl.2025.bls,UKPARL.2025.BLS,Bolton South and Walkden,,bolton-south-and-walkden,E14001111,BLS,England,North West,borough,75716,33.48086764,2261.470665,53.54252897,-2.404039229,"53.5425289732881,-2.40403922861759"
uk.org.mysociety.cons.ukparl.2025.lrv,UKPARL.2025.LRV,Liverpool Riverside,,liverpool-riverside,E14001338,LRV,England,North West,borough,70157,26.60498742,2636.986776,53.41145202,-2.979489091,"53.411452020517,-2.97948909101748"
uk.org.mysociety.cons.ukparl.2025.lwv,UKPARL.2025.LWV,Liverpool Wavertree,,liverpool-wavertree,E14001340,LWV,England,North West,borough,71076,23.56062963,3016.727529,53.38634069,-2.930634178,"53.3863406877669,-2.93063417788632"
uk.org.mysociety.cons.ukparl.2025.lgt,UKPARL.2025.LGT,Liverpool Garston,,liverpool-garston,E14001337,LGT,England,North West,borough,70372,46.3925327,1516.882048,53.35410361,-2.873672555,"53.3541036091314,-2.87367255453051"
uk.org.mysociety.cons.ukparl.2025.knw,UKPARL.2025.KNW,Knowsley,,knowsley,E14001317,KNW,England,North West,borough,71228,51.20970462,1390.908237,53.45146036,-2.850065244,"53.451460357974,-2.85006524380116"
uk.org.mysociety.cons.ukparl.2025.ole,UKPARL.2025.OLE,Oldham East and Saddleworth,,oldham-east-and-saddleworth,E14001415,OLE,England,North West,county,72997,104.4098043,699.1393242,53.55731726,-2.018904059,"53.5573172573088,-2.01890405855856"
uk.org.mysociety.cons.ukparl.2025.olw,UKPARL.2025.OLW,"Oldham West, Chadderton and Royton",,oldham-west-chadderton-and-royton,E14001416,OLW,England,North West,borough,74183,30.83848205,2405.533446,53.54425645,-2.135468195,"53.5442564542116,-2.13546819524071"
uk.org.mysociety.cons.ukparl.2025.lwl,UKPARL.2025.LWL,Liverpool Walton,,liverpool-walton,E14001339,LWL,England,North West,borough,71181,25.35380333,2807.507777,53.45708516,-2.929645617,"53.4570851558588,-2.92964561691825"
uk.org.mysociety.cons.ukparl.2025.wgn,UKPARL.2025.WGN,Wigan,,wigan,E14001585,WGN,England,North West,county,75607,60.50902836,1249.516015,53.56676985,-2.643332407,"53.5667698464348,-2.64333240713548"
uk.org.mysociety.cons.ukparl.2025.wah,UKPARL.2025.WAH,Widnes and Halewood,,widnes-and-halewood,E14001584,WAH,England,North West,county,70865,70.99424663,998.1794774,53.36661028,-2.778648353,"53.3666102844138,-2.77864835325126"
uk.org.mysociety.cons.ukparl.2025.shn,UKPARL.2025.SHN,St Helens North,,st-helens-north,E14001509,SHN,England,North West,county,76082,83.80587111,907.8361574,53.47944269,-2.716070054,"53.4794426914456,-2.71607005394373"
uk.org.mysociety.cons.ukparl.2025.bms,UKPARL.2025.BMS,Blackley and Middleton South,,blackley-and-middleton-south,E14001103,BMS,England,North West,borough,71375,28.68461836,2488.267374,53.52628786,-2.212154113,"53.5262878644461,-2.21215411337705"
uk.org.mysociety.cons.ukparl.2025.sah,UKPARL.2025.SAH,Stalybridge and Hyde,,stalybridge-and-hyde,E14001515,SAH,England,North West,county,73028,63.22934516,1154.970051,53.47684987,-2.032471976,"53.4768498653823,-2.03247197586027"
uk.org.mysociety.cons.ukparl.2025.aul,UKPARL.2025.AUL,Ashton-under-Lyne,,ashton-under-lyne,E14001070,AUL,England,North West,borough,72278,29.14040329,2480.336297,53.48882453,-2.107287059,"53.4888245284078,-2.10728705903469"
uk.org.mysociety.cons.ukparl.2025.lwd,UKPARL.2025.LWD,Liverpool West Derby,,liverpool-west-derby,E14001341,LWD,England,North West,borough,70730,18.76973014,3768.301381,53.42344652,-2.896373773,"53.4234465172096,-2.89637377257332"
uk.org.mysociety.cons.ukparl.2025.sfd,UKPARL.2025.SFD,Salford,,salford,E14001459,SFD,England,North West,borough,72169,27.73477183,2602.112627,53.49797497,-2.300277538,"53.4979749669476,-2.30027753786128"
uk.org.mysociety.cons.ukparl.2025.wsl,UKPARL.2025.WSL,Worsley and Eccles,,worsley-and-eccles,E14001598,WSL,England,North West,county,76915,71.48807558,1075.913701,53.47835504,-2.416958946,"53.4783550357692,-2.41695894606388"
uk.org.mysociety.cons.ukparl.2025.shs,UKPARL.2025.SHS,St Helens South and Whiston,,st-helens-south-and-whiston,E14001510,SHS,England,North West,borough,70937,54.92340363,1291.562345,53.42732637,-2.738071253,"53.4273263694856,-2.73807125292768"
uk.org.mysociety.cons.ukparl.2025.sau,UKPARL.2025.SAU,Stretford and Urmston,,stretford-and-urmston,E14001528,SAU,England,North West,borough,73212,46.80608576,1564.155575,53.44634568,-2.352516062,"53.4463456780439,-2.35251606211182"
uk.org.mysociety.cons.ukparl.2025.was,UKPARL.2025.WAS,Warrington South,,warrington-south,E14001565,WAS,England,North West,county,76639,74.24357941,1032.264347,53.36880379,-2.599512372,"53.3688037901488,-2.59951237191231"
uk.org.mysociety.cons.ukparl.2025.wan,UKPARL.2025.WAN,Warrington North,,warrington-north,E14001564,WAN,England,North West,county,72350,91.28405452,792.5809209,53.42693251,-2.551186687,"53.4269325082851,-2.55118668740252"
uk.org.mysociety.cons.ukparl.2025.asw,UKPARL.2025.ASW,Altrincham and Sale West,,altrincham-and-sale-west,E14001065,ASW,England,North West,borough,73934,50.93049562,1451.664648,53.39351018,-2.365697451,"53.393510176538,-2.36569745066568"
uk.org.mysociety.cons.ukparl.2025.wyt,UKPARL.2025.WYT,Wythenshawe and Sale East,,wythenshawe-and-sale-east,E14001602,WYT,England,North West,borough,76971,36.54467703,2106.216452,53.39250068,-2.28147311,"53.3925006789389,-2.28147311046718"
uk.org.mysociety.cons.ukparl.2025.mct,UKPARL.2025.MCT,Manchester Central,,manchester-central,E14001352,MCT,England,North West,borough,75311,27.57263966,2731.36707,53.491662,-2.193309171,"53.4916620009682,-2.19330917127356"
uk.org.mysociety.cons.ukparl.2025.tat,UKPARL.2025.TAT,Tatton,,tatton,E14001539,TAT,England,North West,county,75538,361.8101294,208.7780133,53.30219088,-2.407452078,"53.3021908756748,-2.40745207762545"
uk.org.mysociety.cons.ukparl.2025.gad,UKPARL.2025.GAD,Gorton and Denton,,gorton-and-denton,E14001251,GAD,England,North West,borough,74306,22.70169527,3273.147627,53.45035837,-2.153979135,"53.4503583726621,-2.153979135424"
uk.org.mysociety.cons.ukparl.2025.wir,UKPARL.2025.WIR,Wirral West,,wirral-west,E14001589,WIR,England,North West,county,72126,148.4160464,485.9717108,53.35979216,-3.136552987,"53.3597921624812,-3.13655298741324"
uk.org.mysociety.cons.ukparl.2025.mch,UKPARL.2025.MCH,Mid Cheshire,,mid-cheshire,E14001361,MCH,England,North West,county,69775,105.0553029,664.1739928,53.20809097,-2.515589907,"53.2080909705619,-2.51558990669902"
uk.org.mysociety.cons.ukparl.2025.mrh,UKPARL.2025.MRH,Manchester Rusholme,,manchester-rusholme,E14001353,MRH,England,North West,borough,70692,14.82577391,4768.182789,53.45729365,-2.230697775,"53.4572936487573,-2.23069777467236"
uk.org.mysociety.cons.ukparl.2025.mwi,UKPARL.2025.MWI,Manchester Withington,,manchester-withington,E14001354,MWI,England,North West,borough,71614,18.16704651,3941.972623,53.42771609,-2.248147729,"53.4277160860074,-2.24814772940309"
uk.org.mysociety.cons.ukparl.2025.chs,UKPARL.2025.CHS,Chester South and Eddisbury,,chester-south-and-eddisbury,E14001164,CHS,England,North West,county,71975,754.9358292,95.33922913,53.09934253,-2.67029799,"53.0993425347764,-2.67029799045881"
uk.org.mysociety.cons.ukparl.2025.cwn,UKPARL.2025.CWN,Crewe and Nantwich,,crewe-and-nantwich,E14001185,CWN,England,North West,county,76236,89.93009964,847.7250698,53.08563298,-2.431489524,"53.0856329763627,-2.43148952362859"
uk.org.mysociety.cons.ukparl.2025.spt,UKPARL.2025.SPT,Stockport,,stockport,E14001517,SPT,England,North West,borough,74769,25.28234299,2957.360401,53.41779758,-2.168899301,"53.4177975759305,-2.16889930081599"
uk.org.mysociety.cons.ukparl.2025.wll,UKPARL.2025.WLL,Wallasey,,wallasey,E14001561,WLL,England,North West,borough,73054,38.83941889,1880.924125,53.41786165,-3.080264982,"53.4178616453579,-3.08026498219759"
uk.org.mysociety.cons.ukparl.2025.cng,UKPARL.2025.CNG,Congleton,,congleton,E14001178,CNG,England,North West,county,69836,211.4580271,330.2593945,53.15972347,-2.305477817,"53.1597234707268,-2.30547781690999"
uk.org.mysociety.cons.ukparl.2025.mac,UKPARL.2025.MAC,Macclesfield,,macclesfield,E14001347,MAC,England,North West,county,75881,301.7385444,251.4793068,53.2617019,-2.119763937,"53.2617019011269,-2.11976393705904"
uk.org.mysociety.cons.ukparl.2025.chn,UKPARL.2025.CHN,Chester North and Neston,,chester-north-and-neston,E14001163,CHN,England,North West,county,72327,115.5810928,625.7684389,53.25363492,-2.979667732,"53.2536349160098,-2.97966773192242"
uk.org.mysociety.cons.ukparl.2025.cdl,UKPARL.2025.CDL,Cheadle,,cheadle,E14001158,CDL,England,North West,borough,73775,39.37205976,1873.790715,53.37039036,-2.184736799,"53.3703903566727,-2.18473679874703"
uk.org.mysociety.cons.ukparl.2025.elp,UKPARL.2025.ELP,Ellesmere Port and Bromborough,,ellesmere-port-and-bromborough,E14001222,ELP,England,North West,borough,71027,59.64513624,1190.826352,53.31134317,-2.937127991,"53.3113431661787,-2.93712799084462"
uk.org.mysociety.cons.ukparl.2025.bkh,UKPARL.2025.BKH,Birkenhead,,birkenhead,E14001091,BKH,England,North West,borough,76271,35.29442021,2160.993141,53.37887443,-3.038381919,"53.378874428572,-3.03838191909048"
uk.org.mysociety.cons.ukparl.2025.rah,UKPARL.2025.RAH,Runcorn and Helsby,,runcorn-and-helsby,E14001455,RAH,England,North West,county,70950,203.63435,348.4186239,53.27889973,-2.759798313,"53.2788997263183,-2.75979831328802"
uk.org.mysociety.cons.ukparl.2025.wal,UKPARL.2025.WAL,Westmorland and Lonsdale,,westmorland-and-lonsdale,E14001580,WAL,England,North West,county,72322,2536.443911,28.51314775,54.45290225,-2.730284833,"54.4529022455739,-2.73028483267057"
uk.org.mysociety.cons.ukparl.2025.brw,UKPARL.2025.BRW,Barrow and Furness,,barrow-and-furness,E14001076,BRW,England,North West,county,76603,727.9716934,105.2279927,54.24877754,-3.220031614,"54.248777535289,-3.22003161401664"
uk.org.mysociety.cons.ukparl.2025.haz,UKPARL.2025.HAZ,Hazel Grove,,hazel-grove,E14001277,HAZ,England,North West,county,72941,61.38590854,1188.236873,53.39923892,-2.074971057,"53.3992389214282,-2.07497105690669"
uk.org.mysociety.cons.ukparl.2025.pen,UKPARL.2025.PEN,Penrith and Solway,,penrith-and-solway,E14001424,PEN,England,North West,county,76720,2032.759891,37.7417915,54.7396239,-3.017924464,"54.7396239021743,-3.01792446441445"
uk.org.mysociety.cons.ukparl.2025.waw,UKPARL.2025.WAW,Whitehaven and Workington,,whitehaven-and-workington,E14001583,WAW,England,North West,county,73385,550.3144311,133.3510369,54.51287499,-3.443035035,"54.5128749878202,-3.44303503474767"
uk.org.mysociety.cons.ukparl.2025.brl,UKPARL.2025.BRL,Bognor Regis and Littlehampton,,bognor-regis-and-littlehampton,E14001108,BRL,England,South East,borough,76985,48.11042759,1600.172849,50.80613747,-0.6009100176,"50.8061374681694,-0.600910017594813"
uk.org.mysociety.cons.ukparl.2025.asd,UKPARL.2025.ASD,Arundel and South Downs,,arundel-and-south-downs,E14001067,ASD,England,South East,county,76974,835.6651063,92.11106151,50.95821456,-0.6016533803,"50.9582145584484,-0.601653380279335"
uk.org.mysociety.cons.ukparl.2025.ays,UKPARL.2025.AYS,Aylesbury,,aylesbury,E14001071,AYS,England,South East,county,75636,196.521987,384.8729658,51.84749914,-0.7207845797,"51.8474991370483,-0.720784579696837"
uk.org.mysociety.cons.ukparl.2025.mkn,UKPARL.2025.MKN,Milton Keynes North,,milton-keynes-north,E14001370,MKN,England,South East,county,70620,221.3464455,319.0473642,52.11001189,-0.7363601964,"52.1100118890414,-0.736360196390248"
uk.org.mysociety.cons.ukparl.2025.mkc,UKPARL.2025.MKC,Milton Keynes Central,,milton-keynes-central,E14001369,MKC,England,South East,borough,76708,65.79103219,1165.93398,52.0245956,-0.7182553559,"52.0245956031887,-0.718255355900028"
uk.org.mysociety.cons.ukparl.2025.buc,UKPARL.2025.BUC,Buckingham and Bletchley,,buckingham-and-bletchley,E14001141,BUC,England,South East,county,73644,396.2445932,185.8549019,51.97276597,-0.8994230694,"51.9727659690144,-0.899423069368854"
uk.org.mysociety.cons.ukparl.2025.mbu,UKPARL.2025.MBU,Mid Buckinghamshire,,mid-buckinghamshire,E14001360,MBU,England,South East,county,72240,541.6301941,133.3751345,51.78220327,-0.8882290854,"51.7822032739485,-0.888229085439363"
uk.org.mysociety.cons.ukparl.2025.wyc,UKPARL.2025.WYC,Wycombe,,wycombe,E14001600,WYC,England,South East,county,71769,141.0470661,508.8301514,51.60800385,-0.8298151996,"51.6080038523833,-0.829815199563911"
uk.org.mysociety.cons.ukparl.2025.ban,UKPARL.2025.BAN,Banbury,,banbury,E14001072,BAN,England,South East,county,69943,512.6068126,136.445709,51.98453047,-1.427103317,"51.9845304657545,-1.4271033172506"
uk.org.mysociety.cons.ukparl.2025.bws,UKPARL.2025.BWS,Bicester and Woodstock,,bicester-and-woodstock,E14001090,BWS,England,South East,county,70389,448.8463952,156.8220236,51.87281886,-1.250084782,"51.8728188639082,-1.25008478240091"
uk.org.mysociety.cons.ukparl.2025.hat,UKPARL.2025.HAT,Henley and Thame,,henley-and-thame,E14001280,HAT,England,South East,county,70626,548.7834687,128.6955676,51.63750925,-1.04162573,"51.6375092547322,-1.04162573002319"
uk.org.mysociety.cons.ukparl.2025.daw,UKPARL.2025.DAW,Didcot and Wantage,,didcot-and-wantage,E14001197,DAW,England,South East,county,74356,402.3433117,184.8073469,51.60377996,-1.341011669,"51.6037799600947,-1.34101166901776"
uk.org.mysociety.cons.ukparl.2025.wit,UKPARL.2025.WIT,Witney,,witney,E14001591,WIT,England,South East,county,70042,557.7406523,125.5816654,51.72860647,-1.555933825,"51.7286064687317,-1.55593382488587"
uk.org.mysociety.cons.ukparl.2025.oxw,UKPARL.2025.OXW,Oxford West and Abingdon,,oxford-west-and-abingdon,E14001420,OXW,England,South East,county,72004,107.5777001,669.3208717,51.7227577,-1.2978493,"51.7227576971498,-1.29784930014588"
uk.org.mysociety.cons.ukparl.2025.oxe,UKPARL.2025.OXE,Oxford East,,oxford-east,E14001419,OXE,England,South East,borough,72371,28.0494655,2580.120466,51.74562695,-1.220751927,"51.745626954009,-1.22075192660978"
uk.org.mysociety.cons.ukparl.2025.nby,UKPARL.2025.NBY,Newbury,,newbury,E14001376,NBY,England,South East,county,71631,396.7622553,180.5388467,51.44715608,-1.415058104,"51.4471560773561,-1.41505810409235"
uk.org.mysociety.cons.ukparl.2025.rdw,UKPARL.2025.RDW,Reading West and Mid Berkshire,,reading-west-and-mid-berkshire,E14001439,RDW,England,South East,county,69999,313.7051588,223.1362732,51.4528112,-1.158947088,"51.4528112046647,-1.15894708786004"
uk.org.mysociety.cons.ukparl.2025.rdg,UKPARL.2025.RDG,Reading Central,,reading-central,E14001438,RDG,England,South East,borough,71283,25.76780468,2766.359062,51.45960651,-0.977623732,"51.4596065053287,-0.977623731992886"
uk.org.mysociety.cons.ukparl.2025.ear,UKPARL.2025.EAR,Earley and Woodley,,earley-and-woodley,E14001210,EAR,England,South East,borough,70083,48.9536387,1431.619832,51.42953089,-0.9412833278,"51.4295308908104,-0.941283327819198"
uk.org.mysociety.cons.ukparl.2025.wkm,UKPARL.2025.WKM,Wokingham,,wokingham,E14001593,WKM,England,South East,county,70235,138.344019,507.6836751,51.42922956,-0.8687115141,"51.4292295594244,-0.868711514089776"
uk.org.mysociety.cons.ukparl.2025.brk,UKPARL.2025.BRK,Bracknell,,bracknell,E14001117,BRK,England,South East,borough,70247,46.95994949,1495.891728,51.3809509,-0.7677732342,"51.3809509007779,-0.767773234168909"
uk.org.mysociety.cons.ukparl.2025.mai,UKPARL.2025.MAI,Maidenhead,,maidenhead,E14001348,MAI,England,South East,county,73463,182.3841024,402.7927819,51.48149823,-0.743676633,"51.4814982281589,-0.74367663303972"
uk.org.mysociety.cons.ukparl.2025.slo,UKPARL.2025.SLO,Slough,,slough,E14001477,SLO,England,South East,borough,75287,24.62585049,3057.234512,51.51477256,-0.6056455619,"51.5147725583319,-0.605645561948224"
uk.org.mysociety.cons.ukparl.2025.wnd,UKPARL.2025.WND,Windsor,,windsor,E14001588,WND,England,South East,county,74338,110.9602316,669.9517381,51.44478158,-0.5987038102,"51.4447815801813,-0.598703810236509"
uk.org.mysociety.cons.ukparl.2025.spl,UKPARL.2025.SPL,Spelthorne,,spelthorne,E14001505,SPL,England,South East,borough,72897,51.16136261,1424.844771,51.42480253,-0.4679835263,"51.4248025333865,-0.467983526317723"
uk.org.mysociety.cons.ukparl.2025.run,UKPARL.2025.RUN,Runnymede and Weybridge,,runnymede-and-weybridge,E14001456,RUN,England,South East,county,73778,102.1693725,722.1146436,51.36186679,-0.4693687299,"51.3618667863987,-0.469368729906732"
uk.org.mysociety.cons.ukparl.2025.eaw,UKPARL.2025.EAW,Esher and Walton,,esher-and-walton,E14001230,EAW,England,South East,borough,73280,47.62885007,1538.563284,51.37749866,-0.3742062957,"51.3774986565189,-0.374206295744568"
uk.org.mysociety.cons.ukparl.2025.eae,UKPARL.2025.EAE,Epsom and Ewell,,epsom-and-ewell,E14001227,EAE,England,South East,borough,76844,58.2018836,1320.300912,51.32471287,-0.2836967634,"51.3247128687558,-0.283696763447488"
uk.org.mysociety.cons.ukparl.2025.rei,UKPARL.2025.REI,Reigate,,reigate,E14001442,REI,England,South East,county,76139,87.56845669,869.479752,51.27218327,-0.2032085798,"51.2721832718843,-0.203208579842744"
uk.org.mysociety.cons.ukparl.2025.esu,UKPARL.2025.ESU,East Surrey,,east-surrey,E14001215,ESU,England,South East,county,73145,259.7833919,281.5614942,51.22924087,-0.04800610617,"51.2292408712165,-0.0480061061694838"
uk.org.mysociety.cons.ukparl.2025.dah,UKPARL.2025.DAH,Dorking and Horley,,dorking-and-horley,E14001201,DAH,England,South East,county,70317,280.5486516,250.6410193,51.19845254,-0.3165905249,"51.1984525417833,-0.316590524894593"
uk.org.mysociety.cons.ukparl.2025.gui,UKPARL.2025.GUI,Guildford,,guildford,E14001258,GUI,England,South East,county,71367,126.0937782,565.9835167,51.26698728,-0.5094361747,"51.2669872805514,-0.509436174652845"
uk.org.mysociety.cons.ukparl.2025.gaa,UKPARL.2025.GAA,Godalming and Ash,,godalming-and-ash,E14001249,GAA,England,South East,county,71399,344.9934672,206.9575421,51.16578067,-0.5898023708,"51.1657806650532,-0.589802370798214"
uk.org.mysociety.cons.ukparl.2025.wok,UKPARL.2025.WOK,Woking,,woking,E14001592,WOK,England,South East,borough,71737,63.60360392,1127.87634,51.31387862,-0.5607701053,"51.3138786208702,-0.56077010528047"
uk.org.mysociety.cons.ukparl.2025.srh,UKPARL.2025.SRH,Surrey Heath,,surrey-heath,E14001532,SRH,England,South East,county,70825,130.4832896,542.7898102,51.32503429,-0.670655532,"51.3250342927722,-0.670655531966479"
uk.org.mysociety.cons.ukparl.2025.fab,UKPARL.2025.FAB,Farnham and Bordon,,farnham-and-bordon,E14001234,FAB,England,South East,county,72938,169.3987291,430.5699362,51.1379886,-0.7980145374,"51.137988604839,-0.798014537406856"
uk.org.mysociety.cons.ukparl.2025.eha,UKPARL.2025.EHA,East Hampshire,,east-hampshire,E14001214,EHA,England,South East,county,69959,513.9860862,136.1106884,51.08700504,-1.000548318,"51.0870050369353,-1.00054831813197"
uk.org.mysociety.cons.ukparl.2025.neh,UKPARL.2025.NEH,North East Hampshire,,north-east-hampshire,E14001392,NEH,England,South East,county,73306,327.3506525,223.937235,51.28196844,-0.9579926943,"51.2819684399669,-0.957992694251399"
uk.org.mysociety.cons.ukparl.2025.bsk,UKPARL.2025.BSK,Basingstoke,,basingstoke,E14001078,BSK,England,South East,borough,77050,78.6102007,980.1526941,51.25024345,-1.157095771,"51.2502434536543,-1.15709577118925"
uk.org.mysociety.cons.ukparl.2025.nwh,UKPARL.2025.NWH,North West Hampshire,,north-west-hampshire,E14001403,NWH,England,South East,county,76004,446.2969034,170.2991874,51.2890101,-1.327118631,"51.2890100992534,-1.32711863051932"
uk.org.mysociety.cons.ukparl.2025.rso,UKPARL.2025.RSO,Romsey and Southampton North,,romsey-and-southampton-north,E14001449,RSO,England,South East,county,73831,535.7977428,137.7963998,51.10069552,-1.515465539,"51.1006955205517,-1.51546553886858"
uk.org.mysociety.cons.ukparl.2025.sot,UKPARL.2025.SOT,Southampton Test,,southampton-test,E14001500,SOT,England,South East,borough,69960,23.51276149,2975.405505,50.92311752,-1.429919916,"50.9231175227058,-1.42991991607185"
uk.org.mysociety.cons.ukparl.2025.soi,UKPARL.2025.SOI,Southampton Itchen,,southampton-itchen,E14001499,SOI,England,South East,borough,72150,25.34171887,2847.083908,50.90403155,-1.370197638,"50.9040315519347,-1.37019763816817"
uk.org.mysociety.cons.ukparl.2025.nfe,UKPARL.2025.NFE,New Forest East,,new-forest-east,E14001373,NFE,England,South East,county,73823,415.661759,177.6035404,50.85133066,-1.521746141,"50.851330663534,-1.52174614087197"
uk.org.mysociety.cons.ukparl.2025.nfw,UKPARL.2025.NFW,New Forest West,,new-forest-west,E14001374,NFW,England,South East,county,71009,360.6239153,196.9059649,50.86665263,-1.743506627,"50.8666526273118,-1.74350662746012"
uk.org.mysociety.cons.ukparl.2025.esl,UKPARL.2025.ESL,Eastleigh,,eastleigh,E14001220,ESL,England,South East,borough,69982,51.06014122,1370.579837,50.96373721,-1.340761143,"50.963737211353,-1.34076114282527"
uk.org.mysociety.cons.ukparl.2025.hbv,UKPARL.2025.HBV,Hamble Valley,,hamble-valley,E14001263,HBV,England,South East,county,76902,100.641174,764.1206568,50.88295877,-1.275213001,"50.8829587678828,-1.27521300142007"
uk.org.mysociety.cons.ukparl.2025.win,UKPARL.2025.WIN,Winchester,,winchester,E14001587,WIN,England,South East,county,76577,572.8716901,133.6721666,51.0487163,-1.231667832,"51.0487162959237,-1.23166783168756"
uk.org.mysociety.cons.ukparl.2025.faw,UKPARL.2025.FAW,Fareham and Waterlooville,,fareham-and-waterlooville,E14001233,FAW,England,South East,county,77036,98.90252799,778.9083006,50.88080073,-1.126974317,"50.8808007291103,-1.1269743174887"
uk.org.mysociety.cons.ukparl.2025.gos,UKPARL.2025.GOS,Gosport,,gosport,E14001252,GOS,England,South East,borough,73763,38.96404138,1893.104447,50.8110173,-1.173903365,"50.8110172979818,-1.17390336474233"
uk.org.mysociety.cons.ukparl.2025.pon,UKPARL.2025.PON,Portsmouth North,,portsmouth-north,E14001431,PON,England,South East,borough,71844,43.15446227,1664.810456,50.83047097,-1.077678255,"50.8304709712548,-1.07767825525662"
uk.org.mysociety.cons.ukparl.2025.pos,UKPARL.2025.POS,Portsmouth South,,portsmouth-south,E14001432,POS,England,South East,borough,74253,16.98466414,4371.767342,50.79496847,-1.08014512,"50.7949684653896,-1.08014511978597"
uk.org.mysociety.cons.ukparl.2025.hav,UKPARL.2025.HAV,Havant,,havant,E14001275,HAV,England,South East,borough,72766,70.79048643,1027.906484,50.83229282,-0.9854179414,"50.8322928206786,-0.985417941407124"
uk.org.mysociety.cons.ukparl.2025.cch,UKPARL.2025.CCH,Chichester,,chichester,E14001166,CCH,England,South East,county,76765,317.2086857,242.0015702,50.84122224,-0.8250850992,"50.841222236596,-0.825085099217239"
uk.org.mysociety.cons.ukparl.2025.wrh,UKPARL.2025.WRH,Worthing West,,worthing-west,E14001599,WRH,England,South East,county,76293,75.87080432,1005.564666,50.84412697,-0.439113399,"50.8441269650214,-0.439113398952624"
uk.org.mysociety.cons.ukparl.2025.ews,UKPARL.2025.EWS,East Worthing and Shoreham,,east-worthing-and-shoreham,E14001218,EWS,England,South East,county,75466,57.4575381,1313.422094,50.8424685,-0.3165802469,"50.8424685048036,-0.316580246946202"
uk.org.mysociety.cons.ukparl.2025.aht,UKPARL.2025.AHT,Aldershot,,aldershot,E14001063,AHT,England,South East,borough,76765,57.09110389,1344.605285,51.28922591,-0.7802023523,"51.2892259070854,-0.780202352260419"
uk.org.mysociety.cons.ukparl.2025.hap,UKPARL.2025.HAP,Hove and Portslade,,hove-and-portslade,E14001296,HAP,England,South East,borough,73726,24.1170517,3057.007171,50.84798227,-0.1974069477,"50.8479822691783,-0.197406947698318"
uk.org.mysociety.cons.ukparl.2025.msu,UKPARL.2025.MSU,Mid Sussex,,mid-sussex,E14001366,MSU,England,South East,county,72255,165.9520273,435.3969106,50.96673669,-0.172350997,"50.9667366873004,-0.172350997021672"
uk.org.mysociety.cons.ukparl.2025.hrh,UKPARL.2025.HRH,Horsham,,horsham,E14001294,HRH,England,South East,county,76981,311.1963684,247.3711386,51.04194046,-0.3422608092,"51.041940457691,-0.342260809233701"
uk.org.mysociety.cons.ukparl.2025.cra,UKPARL.2025.CRA,Crawley,,crawley,E14001184,CRA,England,South East,borough,74446,44.97120503,1655.414836,51.12547062,-0.1820346106,"51.1254706201554,-0.182034610578671"
uk.org.mysociety.cons.ukparl.2025.ebn,UKPARL.2025.EBN,Eastbourne,,eastbourne,E14001219,EBN,England,South East,borough,73322,45.33126219,1617.470956,50.77623053,0.2662294583,"50.7762305336246,0.266229458301022"
uk.org.mysociety.cons.ukparl.2025.bex,UKPARL.2025.BEX,Bexhill and Battle,,bexhill-and-battle,E14001088,BEX,England,South East,county,70869,467.9465938,151.4467697,50.94091603,0.468964432,"50.9409160301294,0.468964431967435"
uk.org.mysociety.cons.ukparl.2025.har,UKPARL.2025.HAR,Hastings and Rye,,hastings-and-rye,E14001274,HAR,England,South East,county,75581,145.7054449,518.7246093,50.92602513,0.6890625701,"50.9260251285468,0.689062570127349"
uk.org.mysociety.cons.ukparl.2025.tnw,UKPARL.2025.TNW,Tunbridge Wells,,tunbridge-wells,E14001555,TNW,England,South East,county,75213,248.0694349,303.1933379,51.12016807,0.3861556799,"51.1201680671243,0.386155679878191"
uk.org.mysociety.cons.ukparl.2025.grv,UKPARL.2025.GRV,Gravesham,,gravesham,E14001254,GRV,England,South East,county,72866,104.9587757,694.2344697,51.40512703,0.3949941833,"51.4051270330011,0.39499418334998"
uk.org.mysociety.cons.ukparl.2025.ras,UKPARL.2025.RAS,Rochester and Strood,,rochester-and-strood,E14001447,RAS,England,South East,county,72155,208.8993343,345.4056005,51.44184548,0.5679549525,"51.4418454830116,0.567954952454982"
uk.org.mysociety.cons.ukparl.2025.ctm,UKPARL.2025.CTM,Chatham and Aylesford,,chatham-and-aylesford,E14001157,CTM,England,South East,county,74840,56.26726886,1330.080552,51.33851709,0.4883170535,"51.3385170850538,0.488317053471781"
uk.org.mysociety.cons.ukparl.2025.gar,UKPARL.2025.GAR,Gillingham and Rainham,,gillingham-and-rainham,E14001246,GAR,England,South East,borough,73951,41.80260919,1769.052254,51.375563,0.5931953729,"51.3755629987147,0.593195372886695"
uk.org.mysociety.cons.ukparl.2025.sas,UKPARL.2025.SAS,Sittingbourne and Sheppey,,sittingbourne-and-sheppey,E14001474,SAS,England,South East,county,76818,206.2183251,372.5081171,51.38430794,0.7721441642,"51.3843079443069,0.772144164232537"
uk.org.mysociety.cons.ukparl.2025.ash,UKPARL.2025.ASH,Ashford,,ashford,E14001069,ASH,England,South East,county,73546,226.2259673,325.0997261,51.14170691,1.019092074,"51.1417069059237,1.01909207438156"
uk.org.mysociety.cons.ukparl.2025.fah,UKPARL.2025.FAH,Folkestone and Hythe,,folkestone-and-hythe,E14001239,FAH,England,South East,county,70023,240.0346673,291.7203619,51.00997487,0.9445046165,"51.0099748651666,0.944504616549449"
uk.org.mysociety.cons.ukparl.2025.dad,UKPARL.2025.DAD,Dover and Deal,,dover-and-deal,E14001202,DAD,England,South East,county,75855,220.9330353,343.3393286,51.18068506,1.290074135,"51.1806850574289,1.2900741351403"
uk.org.mysociety.cons.ukparl.2025.ctb,UKPARL.2025.CTB,Canterbury,,canterbury,E14001151,CTB,England,South East,county,75499,242.8748034,310.8556299,51.26545643,1.086108874,"51.2654564254284,1.08610887439897"
uk.org.mysociety.cons.ukparl.2025.hbs,UKPARL.2025.HBS,Herne Bay and Sandwich,,herne-bay-and-sandwich,E14001282,HBS,England,South East,county,76028,249.696155,304.4820614,51.32087553,1.252001243,"51.3208755273226,1.25200124251357"
uk.org.mysociety.cons.ukparl.2025.eth,UKPARL.2025.ETH,East Thanet,,east-thanet,E14001216,ETH,England,South East,borough,73790,38.31920548,1925.666231,51.35710294,1.407010389,"51.3571029406386,1.40701038904842"
uk.org.mysociety.cons.ukparl.2025.iww,UKPARL.2025.IWW,Isle of Wight West,,isle-of-wight-west,E14001304,IWW,England,South East,county,54911,271.1104322,202.5410809,50.67509294,-1.349351451,"50.6750929393891,-1.34935145091058"
uk.org.mysociety.cons.ukparl.2025.iwe,UKPARL.2025.IWE,Isle of Wight East,,isle-of-wight-east,E14001303,IWE,England,South East,county,56805,121.7140612,466.7086075,50.67719749,-1.178986015,"50.6771974866818,-1.17898601510789"
uk.org.mysociety.cons.ukparl.2025.bcf,UKPARL.2025.BCF,Beaconsfield,,beaconsfield,E14001082,BCF,England,South East,county,72315,165.5984133,436.6889667,51.56093457,-0.6217472883,"51.5609345711,-0.621747288283828"
uk.org.mysociety.cons.ukparl.2025.bpv,UKPARL.2025.BPV,Brighton Pavilion,,brighton-pavilion,E14001130,BPV,England,South East,borough,75722,28.88625842,2621.384843,50.8588494,-0.1401111403,"50.8588494036779,-0.140111140349869"
uk.org.mysociety.cons.ukparl.2025.bkp,UKPARL.2025.BKP,Brighton Kemptown and Peacehaven,,brighton-kemptown-and-peacehaven,E14001129,BKP,England,South East,borough,69865,42.87211311,1629.6141,50.81995806,-0.06027329147,"50.8199580607761,-0.0602732914679592"
uk.org.mysociety.cons.ukparl.2025.caa,UKPARL.2025.CAA,Chesham and Amersham,,chesham-and-amersham,E14001162,CAA,England,South East,county,74155,145.396204,510.0201928,51.65620649,-0.6013104382,"51.6562064865368,-0.60131043821933"
uk.org.mysociety.cons.ukparl.2025.dfd,UKPARL.2025.DFD,Dartford,,dartford,E14001191,DFD,England,South East,county,72048,65.39752012,1101.693151,51.43423801,0.2590956305,"51.4342380091531,0.259095630457378"
uk.org.mysociety.cons.ukparl.2025.egu,UKPARL.2025.EGU,East Grinstead and Uckfield,,east-grinstead-and-uckfield,E14001212,EGU,England,South East,county,72356,381.9575986,189.4346395,51.02742343,-0.01554192934,"51.0274234306112,-0.0155419293419568"
uk.org.mysociety.cons.ukparl.2025.fav,UKPARL.2025.FAV,Faversham and Mid Kent,,faversham-and-mid-kent,E14001235,FAV,England,South East,county,71798,384.6217637,186.6717039,51.28891119,0.7596406245,"51.288911193381,0.759640624540657"
uk.org.mysociety.cons.ukparl.2025.lws,UKPARL.2025.LWS,Lewes,,lewes,E14001330,LWS,England,South East,county,75091,359.0999544,209.1089099,50.85047787,0.08237127482,"50.8504778699919,0.0823712748197932"
uk.org.mysociety.cons.ukparl.2025.mds,UKPARL.2025.MDS,Maidstone and Malling,,maidstone-and-malling,E14001349,MDS,England,South East,county,73084,51.89091888,1408.415992,51.27935992,0.4652270017,"51.2793599243852,0.465227001674828"
uk.org.mysociety.cons.ukparl.2025.sev,UKPARL.2025.SEV,Sevenoaks,,sevenoaks,E14001465,SEV,England,South East,county,73684,253.8915332,290.2184216,51.31342886,0.1802593605,"51.3134288555255,0.180259360490296"
uk.org.mysociety.cons.ukparl.2025.sxw,UKPARL.2025.SXW,Sussex Weald,,sussex-weald,E14001533,SXW,England,South East,county,70075,481.4062237,145.5631368,51.01078216,0.221270637,"51.0107821575237,0.221270636972506"
uk.org.mysociety.cons.ukparl.2025.ton,UKPARL.2025.TON,Tonbridge,,tonbridge,E14001549,TON,England,South East,county,73692,302.9372192,243.2583233,51.23911349,0.2535803405,"51.2391134868205,0.253580340489754"
uk.org.mysociety.cons.ukparl.2025.wkt,UKPARL.2025.WKT,Weald of Kent,,weald-of-kent,E14001570,WKT,England,South East,county,70110,763.0899828,91.87645177,51.13859273,0.6972873004,"51.1385927278711,0.697287300449654"
uk.org.mysociety.cons.ukparl.2025.fes,UKPARL.2025.FES,Frome and East Somerset,,frome-and-east-somerset,E14001241,FES,England,South West,county,70177,475.95049,147.4460085,51.2303225,-2.424102845,"51.2303224956208,-2.42410284458021"
uk.org.mysociety.cons.ukparl.2025.gas,UKPARL.2025.GAS,Glastonbury and Somerton,,glastonbury-and-somerton,E14001247,GAS,England,South West,county,70015,694.2451849,100.8505374,51.04067548,-2.641303667,"51.0406754791702,-2.6413036669057"
uk.org.mysociety.cons.ukparl.2025.mdp,UKPARL.2025.MDP,Mid Dorset and North Poole,,mid-dorset-and-north-poole,E14001363,MDP,England,South West,county,74305,312.302391,237.9264525,50.76747488,-2.062262749,"50.7674748811321,-2.06226274887913"
uk.org.mysociety.cons.ukparl.2025.sds,UKPARL.2025.SDS,South Dorset,,south-dorset,E14001485,SDS,England,South West,county,76640,367.6204336,208.475898,50.65002658,-2.211617326,"50.6500265790788,-2.21161732595014"
uk.org.mysociety.cons.ukparl.2025.nds,UKPARL.2025.NDS,North Dorset,,north-dorset,E14001388,NDS,England,South West,county,72109,796.7311448,90.50606402,50.90607014,-2.188924722,"50.9060701391581,-2.18892472201718"
uk.org.mysociety.cons.ukparl.2025.wds,UKPARL.2025.WDS,West Dorset,,west-dorset,E14001575,WDS,England,South West,county,75390,1010.873461,74.57906742,50.79423605,-2.593997079,"50.7942360500681,-2.59399707942161"
uk.org.mysociety.cons.ukparl.2025.bsc,UKPARL.2025.BSC,Bristol Central,,bristol-central,E14001131,BSC,England,South West,borough,70227,10.93417232,6422.708361,51.46211535,-2.601353316,"51.4621153544499,-2.60135331629642"
uk.org.mysociety.cons.ukparl.2025.bss,UKPARL.2025.BSS,Bristol South,,bristol-south,E14001135,BSS,England,South West,borough,74696,22.39792129,3334.952339,51.42259613,-2.600576856,"51.4225961274949,-2.60057685633631"
uk.org.mysociety.cons.ukparl.2025.bse,UKPARL.2025.BSE,Bristol East,,bristol-east,E14001132,BSE,England,South West,borough,75936,22.01826974,3448.772356,51.4427606,-2.550885485,"51.4427606024769,-2.55088548471328"
uk.org.mysociety.cons.ukparl.2025.bnw,UKPARL.2025.BNW,Bristol North West,,bristol-north-west,E14001134,BNW,England,South West,borough,76783,166.70632,460.5884169,51.45510461,-2.852019207,"51.4551046138716,-2.85201920731348"
uk.org.mysociety.cons.ukparl.2025.bne,UKPARL.2025.BNE,Bristol North East,,bristol-north-east,E14001133,BNE,England,South West,borough,69793,21.45744623,3252.623787,51.4770957,-2.527172497,"51.4770956986503,-2.52717249679912"
uk.org.mysociety.cons.ukparl.2025.fbs,UKPARL.2025.FBS,Filton and Bradley Stoke,,filton-and-bradley-stoke,E14001237,FBS,England,South West,borough,73598,45.29671198,1624.797845,51.51540792,-2.539650547,"51.5154079208032,-2.53965054693923"
uk.org.mysociety.cons.ukparl.2025.tay,UKPARL.2025.TAY,Thornbury and Yate,,thornbury-and-yate,E14001545,TAY,England,South West,county,74935,457.3781346,163.8359911,51.55750612,-2.463201279,"51.5575061179418,-2.46320127923576"
uk.org.mysociety.cons.ukparl.2025.nes,UKPARL.2025.NES,North East Somerset and Hanham,,north-east-somerset-and-hanham,E14001394,NES,England,South West,county,73113,209.4540337,349.064655,51.36291178,-2.545543218,"51.3629117768284,-2.54554321811145"
uk.org.mysociety.cons.ukparl.2025.bth,UKPARL.2025.BTH,Bath,,bath,E14001080,BTH,England,South West,county,73241,73.48552143,996.6725223,51.39906347,-2.360823383,"51.3990634711271,-2.36082338288085"
uk.org.mysociety.cons.ukparl.2025.wsm,UKPARL.2025.WSM,Weston-super-Mare,,weston-super-mare,E14001581,WSM,England,South West,county,70722,73.6919117,959.6982677,51.34789837,-2.947210867,"51.3478983717459,-2.94721086663363"
uk.org.mysociety.cons.ukparl.2025.wel,UKPARL.2025.WEL,Wells and Mendip Hills,,wells-and-mendip-hills,E14001572,WEL,England,South West,county,69843,672.909318,103.7925886,51.24609011,-2.771562546,"51.2460901064663,-2.7715625457745"
uk.org.mysociety.cons.ukparl.2025.nss,UKPARL.2025.NSS,North Somerset,,north-somerset,E14001399,NSS,England,South West,county,73963,198.8564873,371.9415998,51.4235359,-2.72965656,"51.4235358967519,-2.72965656044122"
uk.org.mysociety.cons.ukparl.2025.bwt,UKPARL.2025.BWT,Bridgwater,,bridgwater,E14001126,BWT,England,South West,county,71418,337.8973681,211.3600363,51.15209385,-3.026027958,"51.1520938512843,-3.02602795776276"
uk.org.mysociety.cons.ukparl.2025.ple,UKPARL.2025.PLE,Poole,,poole,E14001429,PLE,England,South West,borough,72162,40.04342465,1802.093618,50.7202948,-1.969791419,"50.7202947994652,-1.96979141914486"
uk.org.mysociety.cons.ukparl.2025.bhw,UKPARL.2025.BHW,Bournemouth West,,bournemouth-west,E14001116,BHW,England,South West,borough,72094,26.56969896,2713.391677,50.74417543,-1.899191515,"50.7441754278452,-1.89919151498447"
uk.org.mysociety.cons.ukparl.2025.bhe,UKPARL.2025.BHE,Bournemouth East,,bournemouth-east,E14001115,BHE,England,South West,borough,73173,26.41148433,2770.499344,50.73788216,-1.828241459,"50.7378821551743,-1.82824145923722"
uk.org.mysociety.cons.ukparl.2025.chr,UKPARL.2025.CHR,Christchurch,,christchurch,E14001171,CHR,England,South West,county,71598,114.455558,625.5528453,50.79321571,-1.831437959,"50.7932157131366,-1.83143795888373"
uk.org.mysociety.cons.ukparl.2025.tew,UKPARL.2025.TEW,Tewkesbury,,tewkesbury,E14001542,TEW,England,South West,county,72426,321.8198066,225.0514061,51.96106369,-2.048374328,"51.961063687627,-2.04837432772603"
uk.org.mysociety.cons.ukparl.2025.nct,UKPARL.2025.NCT,North Cotswolds,,north-cotswolds,E14001386,NCT,England,South West,county,70915,1032.846999,68.65973382,51.85999188,-1.916457453,"51.8599918837159,-1.9164574531477"
uk.org.mysociety.cons.ukparl.2025.cnm,UKPARL.2025.CNM,Cheltenham,,cheltenham,E14001161,CNM,England,South West,borough,75292,35.29210042,2133.395267,51.88974909,-2.071137452,"51.8897490868312,-2.07113745215902"
uk.org.mysociety.cons.ukparl.2025.glo,UKPARL.2025.GLO,Gloucester,,gloucester,E14001248,GLO,England,South West,borough,76695,36.10852302,2124.013767,51.84607657,-2.243194355,"51.8460765712522,-2.24319435512834"
uk.org.mysociety.cons.ukparl.2025.fod,UKPARL.2025.FOD,Forest of Dean,,forest-of-dean,E14001240,FOD,England,South West,county,71510,620.2800166,115.2866417,51.83695912,-2.46873694,"51.8369591186043,-2.46873694030262"
uk.org.mysociety.cons.ukparl.2025.str,UKPARL.2025.STR,Stroud,,stroud,E14001529,STR,England,South West,county,76249,281.5941155,270.7762549,51.71063835,-2.349092324,"51.7106383526636,-2.34909232429099"
uk.org.mysociety.cons.ukparl.2025.sct,UKPARL.2025.SCT,South Cotswolds,,south-cotswolds,E14001482,SCT,England,South West,county,72865,838.3515284,86.91461461,51.6139607,-2.051992923,"51.613960698373,-2.05199292282599"
uk.org.mysociety.cons.ukparl.2025.snn,UKPARL.2025.SNN,Swindon North,,swindon-north,E14001536,SNN,England,South West,county,72163,102.3369485,705.1509844,51.61795877,-1.750079249,"51.6179587694457,-1.75007924911184"
uk.org.mysociety.cons.ukparl.2025.sns,UKPARL.2025.SNS,Swindon South,,swindon-south,E14001537,SNS,England,South West,borough,72468,32.66291896,2218.662701,51.55435693,-1.782640165,"51.5543569258791,-1.78264016458138"
uk.org.mysociety.cons.ukparl.2025.cpm,UKPARL.2025.CPM,Chippenham,,chippenham,E14001168,CPM,England,South West,county,71648,273.3553292,262.105737,51.47376803,-1.989285158,"51.4737680269126,-1.98928515812032"
uk.org.mysociety.cons.ukparl.2025.mkm,UKPARL.2025.MKM,Melksham and Devizes,,melksham-and-devizes,E14001356,MKM,England,South West,county,71823,417.535898,172.0163472,51.34816754,-2.080984452,"51.3481675406278,-2.08098445187692"
uk.org.mysociety.cons.ukparl.2025.ewt,UKPARL.2025.EWT,East Wiltshire,,east-wiltshire,E14001217,EWT,England,South West,county,71109,1053.013308,67.52906108,51.33628479,-1.742644151,"51.3362847941205,-1.74264415057046"
uk.org.mysociety.cons.ukparl.2025.sal,UKPARL.2025.SAL,Salisbury,,salisbury,E14001460,SAL,England,South West,county,70242,692.9113371,101.372277,51.05786905,-1.894607417,"51.0578690526784,-1.89460741665479"
uk.org.mysociety.cons.ukparl.2025.sww,UKPARL.2025.SWW,South West Wiltshire,,south-west-wiltshire,E14001498,SWW,England,South West,county,71551,451.5909479,158.4420599,51.19119168,-2.169158342,"51.1911916800035,-2.16915834203399"
uk.org.mysociety.cons.ukparl.2025.yeo,UKPARL.2025.YEO,Yeovil,,yeovil,E14001603,YEO,England,South West,county,76056,335.5523327,226.6591306,50.90657576,-2.846172761,"50.9065757565506,-2.84617276123766"
uk.org.mysociety.cons.ukparl.2025.taw,UKPARL.2025.TAW,Taunton and Wellington,,taunton-and-wellington,E14001540,TAW,England,South West,county,76049,287.7741467,264.2662688,50.99317351,-3.091125854,"50.9931735055065,-3.09112585376967"
uk.org.mysociety.cons.ukparl.2025.tiv,UKPARL.2025.TIV,Tiverton and Minehead,,tiverton-and-minehead,E14001548,TIV,England,South West,county,70829,1300.801012,54.45029589,51.06462651,-3.439134344,"51.064626506635,-3.43913434396277"
uk.org.mysociety.cons.ukparl.2025.hns,UKPARL.2025.HNS,Honiton and Sidmouth,,honiton-and-sidmouth,E14001291,HNS,England,South West,county,74365,648.5636693,114.6610634,50.79028419,-3.173133154,"50.7902841863007,-3.1731331544748"
uk.org.mysociety.cons.ukparl.2025.exm,UKPARL.2025.EXM,Exmouth and Exeter East,,exmouth-and-exeter-east,E14001232,EXM,England,South West,county,74502,252.6697787,294.8591651,50.71734426,-3.409327019,"50.717344262799,-3.40932701931476"
uk.org.mysociety.cons.ukparl.2025.ext,UKPARL.2025.EXT,Exeter,,exeter,E14001231,EXT,England,South West,borough,71713,33.87994256,2116.680094,50.72577825,-3.524346602,"50.7257782511045,-3.52434660205316"
uk.org.mysociety.cons.ukparl.2025.nta,UKPARL.2025.NTA,Newton Abbot,,newton-abbot,E14001381,NTA,England,South West,county,72956,201.9284147,361.296354,50.55195467,-3.570416042,"50.5519546655309,-3.57041604190486"
uk.org.mysociety.cons.ukparl.2025.trb,UKPARL.2025.TRB,Torbay,,torbay,E14001551,TRB,England,South West,borough,75742,92.56934125,818.2190667,50.45001823,-3.520666436,"50.4500182279701,-3.52066643582704"
uk.org.mysociety.cons.ukparl.2025.sdv,UKPARL.2025.SDV,South Devon,,south-devon,E14001484,SDV,England,South West,county,71691,648.8524795,110.4889051,50.36560916,-3.740506885,"50.3656091565784,-3.74050688471242"
uk.org.mysociety.cons.ukparl.2025.pmv,UKPARL.2025.PMV,Plymouth Moor View,,plymouth-moor-view,E14001426,PMV,England,South West,borough,73378,35.20424799,2084.35073,50.41285568,-4.141790956,"50.4128556794582,-4.14179095577959"
uk.org.mysociety.cons.ukparl.2025.psd,UKPARL.2025.PSD,Plymouth Sutton and Devonport,,plymouth-sutton-and-devonport,E14001427,PSD,England,South West,borough,73495,21.82467287,3367.518974,50.37953601,-4.140486775,"50.3795360087449,-4.14048677501971"
uk.org.mysociety.cons.ukparl.2025.ndv,UKPARL.2025.NDV,North Devon,,north-devon,E14001387,NDV,England,South West,county,76455,1104.720566,69.20754654,51.06978364,-3.914565461,"51.069783637836,-3.91456546130283"
uk.org.mysociety.cons.ukparl.2025.tav,UKPARL.2025.TAV,Torridge and Tavistock,,torridge-and-tavistock,E14001552,TAV,England,South West,county,74802,1644.173964,45.4951858,50.77795808,-4.189431387,"50.777958078795,-4.18943138663495"
uk.org.mysociety.cons.ukparl.2025.swd,UKPARL.2025.SWD,South West Devon,,south-west-devon,E14001495,SWD,England,South West,county,75371,399.7520526,188.5443727,50.41765739,-4.009029531,"50.4176573903322,-4.00902953126134"
uk.org.mysociety.cons.ukparl.2025.cdv,UKPARL.2025.CDV,Central Devon,,central-devon,E14001155,CDV,England,South West,county,73491,1374.807477,53.45548467,50.73779963,-3.77760667,"50.7377996312506,-3.77760667004879"
uk.org.mysociety.cons.ukparl.2025.ncr,UKPARL.2025.NCR,North Cornwall,,north-cornwall,E14001385,NCR,England,South West,county,75034,1295.61069,57.91400195,50.61404924,-4.634008942,"50.6140492385823,-4.63400894195331"
uk.org.mysociety.cons.ukparl.2025.sec,UKPARL.2025.SEC,South East Cornwall,,south-east-cornwall,E14001486,SEC,England,South West,county,71734,727.5264351,98.59985362,50.43731843,-4.443482525,"50.4373184269291,-4.4434825245333"
uk.org.mysociety.cons.ukparl.2025.snq,UKPARL.2025.SNQ,St Austell and Newquay,,st-austell-and-newquay,E14001508,SNQ,England,South West,county,74585,298.7218983,249.6803898,50.36174158,-4.851036544,"50.3617415820477,-4.85103654401597"
uk.org.mysociety.cons.ukparl.2025.trf,UKPARL.2025.TRF,Truro and Falmouth,,truro-and-falmouth,E14001554,TRF,England,South West,county,73326,444.4576448,164.9786,50.27001073,-5.023241447,"50.2700107253101,-5.02324144729964"
uk.org.mysociety.cons.ukparl.2025.stv,UKPARL.2025.STV,St Ives,,st-ives,E14001511,STV,England,South West,county,70107,592.9269384,118.2388511,50.10105287,-5.423336075,"50.1010528719679,-5.42333607533545"
uk.org.mysociety.cons.ukparl.2025.crr,UKPARL.2025.CRR,Camborne and Redruth,,camborne-and-redruth,E14001148,CRR,England,South West,county,73568,275.3367205,267.1928389,50.2189242,-5.23348189,"50.2189242040292,-5.23348189047739"
uk.org.mysociety.cons.ukparl.2025.bpb,UKPARL.2025.BPB,Birmingham Perry Barr,,birmingham-perry-barr,E14001098,BPB,England,West Midlands,borough,74048,24.70720962,2997.019945,52.52157693,-1.915315995,"52.5215769335513,-1.91531599513571"
uk.org.mysociety.cons.ukparl.2025.ber,UKPARL.2025.BER,Birmingham Erdington,,birmingham-erdington,E14001093,BER,England,West Midlands,borough,76856,25.17304256,3053.1073,52.5269702,-1.844316815,"52.5269701974828,-1.84431681534767"
uk.org.mysociety.cons.ukparl.2025.klw,UKPARL.2025.KLW,Kenilworth and Southam,,kenilworth-and-southam,E14001309,KLW,England,West Midlands,county,71451,665.0342965,107.4395717,52.25206036,-1.469258219,"52.252060363887,-1.46925821866905"
uk.org.mysociety.cons.ukparl.2025.wkl,UKPARL.2025.WKL,Warwick and Leamington,,warwick-and-leamington,E14001566,WKL,England,West Midlands,county,75440,89.39508979,843.8942248,52.28279005,-1.516440751,"52.2827900528182,-1.51644075127557"
uk.org.mysociety.cons.ukparl.2025.dae,UKPARL.2025.DAE,Droitwich and Evesham,,droitwich-and-evesham,E14001203,DAE,England,West Midlands,county,74345,401.49264,185.171514,52.17751833,-2.058257363,"52.177518327146,-2.05825736303602"
uk.org.mysociety.cons.ukparl.2025.rug,UKPARL.2025.RUG,Rugby,,rugby,E14001453,RUG,England,West Midlands,county,72603,244.627939,296.7894849,52.42448741,-1.335328747,"52.4244874064077,-1.33532874687964"
uk.org.mysociety.cons.ukparl.2025.nun,UKPARL.2025.NUN,Nuneaton,,nuneaton,E14001413,NUN,England,West Midlands,county,70335,83.02308897,847.1739714,52.52312606,-1.518446641,"52.5231260586172,-1.51844664080816"
uk.org.mysociety.cons.ukparl.2025.nwb,UKPARL.2025.NWB,North Warwickshire and Bedworth,,north-warwickshire-and-bedworth,E14001400,NWB,England,West Midlands,county,70245,266.4798452,263.6034254,52.5447992,-1.626998266,"52.5447991990601,-1.62699826583657"
uk.org.mysociety.cons.ukparl.2025.sut,UKPARL.2025.SUT,Sutton Coldfield,,sutton-coldfield,E14001535,SUT,England,West Midlands,borough,74584,57.65105667,1293.714362,52.5617201,-1.813211505,"52.5617200979886,-1.81321150496709"
uk.org.mysociety.cons.ukparl.2025.bsn,UKPARL.2025.BSN,Birmingham Hodge Hill and Solihull North,,birmingham-hodge-hill-and-solihull-north,E14001095,BSN,England,West Midlands,borough,76922,24.66784391,3118.310635,52.49230783,-1.792325021,"52.4923078338606,-1.79232502097736"
uk.org.mysociety.cons.ukparl.2025.bla,UKPARL.2025.BLA,Birmingham Ladywood,,birmingham-ladywood,E14001096,BLA,England,West Midlands,borough,76585,25.68305545,2981.927136,52.48498021,-1.888134767,"52.484980212659,-1.88813476694818"
uk.org.mysociety.cons.ukparl.2025.beb,UKPARL.2025.BEB,Birmingham Edgbaston,,birmingham-edgbaston,E14001092,BEB,England,West Midlands,borough,71354,29.5819504,2412.078955,52.4546062,-1.964170513,"52.4546061965101,-1.964170512993"
uk.org.mysociety.cons.ukparl.2025.bnf,UKPARL.2025.BNF,Birmingham Northfield,,birmingham-northfield,E14001097,BNF,England,West Midlands,borough,73483,24.92329356,2948.366348,52.40760946,-1.969336738,"52.4076094628044,-1.96933673765002"
uk.org.mysociety.cons.ukparl.2025.bso,UKPARL.2025.BSO,Birmingham Selly Oak,,birmingham-selly-oak,E14001099,BSO,England,West Midlands,borough,76285,21.6651527,3521.092191,52.42374127,-1.908250772,"52.4237412691811,-1.90825077230347"
uk.org.mysociety.cons.ukparl.2025.bhg,UKPARL.2025.BHG,Birmingham Hall Green and Moseley,,birmingham-hall-green-and-moseley,E14001094,BHG,England,West Midlands,borough,75781,19.34721936,3916.893616,52.44108868,-1.869386466,"52.441088682721,-1.86938646627312"
uk.org.mysociety.cons.ukparl.2025.bya,UKPARL.2025.BYA,Birmingham Yardley,,birmingham-yardley,E14001100,BYA,England,West Midlands,borough,71912,19.82924936,3626.561887,52.45948586,-1.81271299,"52.4594858574536,-1.81271298977371"
uk.org.mysociety.cons.ukparl.2025.sws,UKPARL.2025.SWS,Solihull West and Shirley,,solihull-west-and-shirley,E14001479,SWS,England,West Midlands,borough,70537,39.1951309,1799.636801,52.40110486,-1.81372923,"52.4011048644081,-1.81372922954991"
